[
    {
        "code": "59111015",
        "nom": "Laajajra",
        "abr_categorie": "CSR-1",
        "categorie": "Centre de Santé Rural niveau1",
        "id_categorie": "2",
        "reseau": "Réseau des Etablissements de Soins de Santé Primaire",
        "abr_reseau": "RESSP",
        "id_reseau": "2",
        "milieu": "Rural",
        "lon": "-5.12635",
        "lat": "34.2066",
        "region": "Fès-Meknès",
        "province": "Moulay Yacoub",
        "delegation": "Moulay Yacoub",
        "cs": "Laajajra",
        "commune": "Laajajra",
        "nombre": 1,
        "Indicateur": "Nombre total",
        "periode": "Sans période",
        "Valeur": 1,
        "value": 1,
        "latitude": "34.2066",
        "longitude": "-5.12635",
        "key": "Laajajra",
        "nom_etab": "59111015 : Laajajra - Moulay Yacoub",
        "nom_cs": "Laajajra - Moulay Yacoub",
        "icon": "2"
    },
    {
        "code": "59111016",
        "nom": "Jouaber",
        "abr_categorie": "DR",
        "categorie": "Dispensaire Rural",
        "id_categorie": "7",
        "reseau": "Réseau des Etablissements de Soins de Santé Primaire",
        "abr_reseau": "RESSP",
        "id_reseau": "2",
        "milieu": "Rural",
        "lon": "-5.21756",
        "lat": "34.2067",
        "region": "Fès-Meknès",
        "province": "Moulay Yacoub",
        "delegation": "Moulay Yacoub",
        "cs": "Laajajra",
        "commune": "Laajajra",
        "nombre": 1,
        "Indicateur": "Nombre total",
        "periode": "Sans période",
        "Valeur": 1,
        "value": 1,
        "latitude": "34.2067",
        "longitude": "-5.21756",
        "key": "Jouaber",
        "nom_etab": "59111016 : Jouaber - Moulay Yacoub",
        "nom_cs": "Laajajra - Moulay Yacoub",
        "icon": "2"
    },
    {
        "code": "59111017",
        "nom": "Sidi Daoud",
        "abr_categorie": "CSR-2",
        "categorie": "Centre de Santé Rural niveau2",
        "id_categorie": "3",
        "reseau": "Réseau des Etablissements de Soins de Santé Primaire",
        "abr_reseau": "RESSP",
        "id_reseau": "2",
        "milieu": "Rural",
        "lon": "-5.14122",
        "lat": "34.3031",
        "region": "Fès-Meknès",
        "province": "Moulay Yacoub",
        "delegation": "Moulay Yacoub",
        "cs": "Laajajra",
        "commune": "Sidi Daoud",
        "nombre": 1,
        "Indicateur": "Nombre total",
        "periode": "Sans période",
        "Valeur": 1,
        "value": 1,
        "latitude": "34.3031",
        "longitude": "-5.14122",
        "key": "Sidi Daoud",
        "nom_etab": "59111017 : Sidi Daoud - Moulay Yacoub",
        "nom_cs": "Laajajra - Moulay Yacoub",
        "icon": "2"
    },
    {
        "code": "59111018",
        "nom": "Sbaa Rouadi",
        "abr_categorie": "DR",
        "categorie": "Dispensaire Rural",
        "id_categorie": "7",
        "reseau": "Réseau des Etablissements de Soins de Santé Primaire",
        "abr_reseau": "RESSP",
        "id_reseau": "2",
        "milieu": "Rural",
        "lon": "-5.19576",
        "lat": "34.28337",
        "region": "Fès-Meknès",
        "province": "Moulay Yacoub",
        "delegation": "Moulay Yacoub",
        "cs": "Laajajra",
        "commune": "Sidi Daoud",
        "nombre": 1,
        "Indicateur": "Nombre total",
        "periode": "Sans période",
        "Valeur": 1,
        "value": 1,
        "latitude": "34.28337",
        "longitude": "-5.19576",
        "key": "Sbaa Rouadi",
        "nom_etab": "59111018 : Sbaa Rouadi - Moulay Yacoub",
        "nom_cs": "Laajajra - Moulay Yacoub",
        "icon": "2"
    },
    {
        "code": "59111019",
        "nom": "Tikniouine",
        "abr_categorie": "DR",
        "categorie": "Dispensaire Rural",
        "id_categorie": "7",
        "reseau": "Réseau des Etablissements de Soins de Santé Primaire",
        "abr_reseau": "RESSP",
        "id_reseau": "2",
        "milieu": "Rural",
        "lon": "-5.22249",
        "lat": "34.24706",
        "region": "Fès-Meknès",
        "province": "Moulay Yacoub",
        "delegation": "Moulay Yacoub",
        "cs": "Laajajra",
        "commune": "Sidi Daoud",
        "nombre": 1,
        "Indicateur": "Nombre total",
        "periode": "Sans période",
        "Valeur": 1,
        "value": 1,
        "latitude": "34.24706",
        "longitude": "-5.22249",
        "key": "Tikniouine",
        "nom_etab": "59111019 : Tikniouine - Moulay Yacoub",
        "nom_cs": "Laajajra - Moulay Yacoub",
        "icon": "2"
    },
    {
        "code": "59111020",
        "nom": "Ain Kansara",
        "abr_categorie": "CSR-2",
        "categorie": "Centre de Santé Rural niveau2",
        "id_categorie": "3",
        "reseau": "Réseau des Etablissements de Soins de Santé Primaire",
        "abr_reseau": "RESSP",
        "id_reseau": "2",
        "milieu": "Rural",
        "lon": "-4.83199",
        "lat": "34.1481",
        "region": "Fès-Meknès",
        "province": "Moulay Yacoub",
        "delegation": "Moulay Yacoub",
        "cs": "Ain Kansra",
        "commune": "Ain Kansra",
        "nombre": 1,
        "Indicateur": "Nombre total",
        "periode": "Sans période",
        "Valeur": 1,
        "value": 1,
        "latitude": "34.1481",
        "longitude": "-4.83199",
        "key": "Ain Kansara",
        "nom_etab": "59111020 : Ain Kansara - Moulay Yacoub",
        "nom_cs": "Ain Kansra - Moulay Yacoub",
        "icon": "2"
    },
    {
        "code": "59111021",
        "nom": "Hamria",
        "abr_categorie": "CSR-2",
        "categorie": "Centre de Santé Rural niveau2",
        "id_categorie": "3",
        "reseau": "Réseau des Etablissements de Soins de Santé Primaire",
        "abr_reseau": "RESSP",
        "id_reseau": "2",
        "milieu": "Rural",
        "lon": "-4.9389339",
        "lat": "34.201447",
        "region": "Fès-Meknès",
        "province": "Moulay Yacoub",
        "delegation": "Moulay Yacoub",
        "cs": "Oulad Mimoun",
        "commune": "Louadaine",
        "nombre": 1,
        "Indicateur": "Nombre total",
        "periode": "Sans période",
        "Valeur": 1,
        "value": 1,
        "latitude": "34.201447",
        "longitude": "-4.9389339",
        "key": "Hamria",
        "nom_etab": "59111021 : Hamria - Moulay Yacoub",
        "nom_cs": "Oulad Mimoun - Moulay Yacoub",
        "icon": "2"
    },
    {
        "code": "59111022",
        "nom": "Oulad Mimoun (Sebt Od Jamaa)",
        "abr_categorie": "CSR-1",
        "categorie": "Centre de Santé Rural niveau1",
        "id_categorie": "2",
        "reseau": "Réseau des Etablissements de Soins de Santé Primaire",
        "abr_reseau": "RESSP",
        "id_reseau": "2",
        "milieu": "Rural",
        "lon": "-5.04896",
        "lat": "34.2013",
        "region": "Fès-Meknès",
        "province": "Moulay Yacoub",
        "delegation": "Moulay Yacoub",
        "cs": "Oulad Mimoun",
        "commune": "Oulad Mimoun",
        "nombre": 1,
        "Indicateur": "Nombre total",
        "periode": "Sans période",
        "Valeur": 1,
        "value": 1,
        "latitude": "34.2013",
        "longitude": "-5.04896",
        "key": "Oulad Mimoun (Sebt Od Jamaa)",
        "nom_etab": "59111022 : Oulad Mimoun (Sebt Od Jamaa) - Moulay Yacoub",
        "nom_cs": "Oulad Mimoun - Moulay Yacoub",
        "icon": "2"
    },
    {
        "code": "59111023",
        "nom": "Ben Yakhlef (Oulad Mimoun)",
        "abr_categorie": "DR",
        "categorie": "Dispensaire Rural",
        "id_categorie": "7",
        "reseau": "Réseau des Etablissements de Soins de Santé Primaire",
        "abr_reseau": "RESSP",
        "id_reseau": "2",
        "milieu": "Rural",
        "lon": "-5.02224",
        "lat": "34.2069",
        "region": "Fès-Meknès",
        "province": "Moulay Yacoub",
        "delegation": "Moulay Yacoub",
        "cs": "Oulad Mimoun",
        "commune": "Oulad Mimoun",
        "nombre": 1,
        "Indicateur": "Nombre total",
        "periode": "Sans période",
        "Valeur": 1,
        "value": 1,
        "latitude": "34.2069",
        "longitude": "-5.02224",
        "key": "Ben Yakhlef (Oulad Mimoun)",
        "nom_etab": "59111023 : Ben Yakhlef (Oulad Mimoun) - Moulay Yacoub",
        "nom_cs": "Oulad Mimoun - Moulay Yacoub",
        "icon": "2"
    },
    {
        "code": "59111024",
        "nom": "Ouled bouziane",
        "abr_categorie": "DR",
        "categorie": "Dispensaire Rural",
        "id_categorie": "7",
        "reseau": "Réseau des Etablissements de Soins de Santé Primaire",
        "abr_reseau": "RESSP",
        "id_reseau": "2",
        "milieu": "Rural",
        "lon": "-5.0554246",
        "lat": "34.2735743",
        "region": "Fès-Meknès",
        "province": "Moulay Yacoub",
        "delegation": "Moulay Yacoub",
        "cs": "Oulad Mimoun",
        "commune": "Oulad Mimoun",
        "nombre": 1,
        "Indicateur": "Nombre total",
        "periode": "Sans période",
        "Valeur": 1,
        "value": 1,
        "latitude": "34.2735743",
        "longitude": "-5.0554246",
        "key": "Ouled bouziane",
        "nom_etab": "59111024 : Ouled bouziane - Moulay Yacoub",
        "nom_cs": "Oulad Mimoun - Moulay Yacoub",
        "icon": "2"
    },
    {
        "code": "1901",
        "nom": "CRTS Agadir",
        "abr_categorie": "CRTS",
        "categorie": "Centre Régional de Transfusion Sanguine",
        "id_categorie": "9",
        "reseau": "Réseau Hospitalier",
        "abr_reseau": "RH",
        "id_reseau": "1",
        "milieu": "Urbain",
        "lon": "-9.58308",
        "lat": "30.42893",
        "region": "Souss-Massa",
        "province": "Agadir Ida Ou Tanane",
        "delegation": "Agadir Ida Ou Tanane",
        "cs": "Agadir",
        "commune": "Agadir (Mun.)",
        "nombre": 1,
        "Indicateur": "Nombre total",
        "periode": "Sans période",
        "Valeur": 1,
        "value": 1,
        "latitude": "30.42893",
        "longitude": "-9.58308",
        "key": "CRTS Agadir",
        "nom_etab": "1901 : CRTS Agadir - Agadir Ida Ou Tanane",
        "nom_cs": "Agadir - Agadir Ida Ou Tanane",
        "icon": "1"
    },
    {
        "code": "42101",
        "nom": "SAMU",
        "abr_categorie": "SAMU",
        "categorie": "Service Assistance Médicale d’Urgence",
        "id_categorie": "3",
        "reseau": "Réseau Intégré des Soins d'Urgence Médicale",
        "abr_reseau": "RISUM",
        "id_reseau": "3",
        "milieu": "Urbain",
        "lon": "-6.85476",
        "lat": "33.98484",
        "region": "Rabat-Salé-Kénitra",
        "province": "Rabat",
        "delegation": "Rabat",
        "cs": "Agdal Rabat ",
        "commune": "Agdal Riyad (Arrond.)",
        "nombre": 1,
        "Indicateur": "Nombre total",
        "periode": "Sans période",
        "Valeur": 1,
        "value": 1,
        "latitude": "33.98484",
        "longitude": "-6.85476",
        "key": "SAMU",
        "nom_etab": "42101 : SAMU - Rabat",
        "nom_cs": "Agdal Rabat  - Rabat",
        "icon": "3"
    },
    {
        "code": "401901",
        "nom": "CRTS Ouarzazate",
        "abr_categorie": "CRTS",
        "categorie": "Centre Régional de Transfusion Sanguine",
        "id_categorie": "9",
        "reseau": "Réseau Hospitalier",
        "abr_reseau": "RH",
        "id_reseau": "1",
        "milieu": "Urbain",
        "lon": "-6.91675",
        "lat": "30.92509",
        "region": "Drâa-Tafilalet",
        "province": "Ouarzazate",
        "delegation": "Ouarzazate",
        "cs": "Ouarzazate",
        "commune": "Ouarzazate (Mun.)",
        "nombre": 1,
        "Indicateur": "Nombre total",
        "periode": "Sans période",
        "Valeur": 1,
        "value": 1,
        "latitude": "30.92509",
        "longitude": "-6.91675",
        "key": "CRTS Ouarzazate",
        "nom_etab": "401901 : CRTS Ouarzazate - Ouarzazate",
        "nom_cs": "Ouarzazate - Ouarzazate",
        "icon": "1"
    },
    {
        "code": "421901",
        "nom": "CRTS Rabat",
        "abr_categorie": "CRTS",
        "categorie": "Centre Régional de Transfusion Sanguine",
        "id_categorie": "9",
        "reseau": "Réseau Hospitalier",
        "abr_reseau": "RH",
        "id_reseau": "1",
        "milieu": "Urbain",
        "lon": "-6.8586857",
        "lat": "33.9869867",
        "region": "Rabat-Salé-Kénitra",
        "province": "Rabat",
        "delegation": "Rabat",
        "cs": "Agdal Rabat ",
        "commune": "Agdal Riyad (Arrond.)",
        "nombre": 1,
        "Indicateur": "Nombre total",
        "periode": "Sans période",
        "Valeur": 1,
        "value": 1,
        "latitude": "33.9869867",
        "longitude": "-6.8586857",
        "key": "CRTS Rabat",
        "nom_etab": "421901 : CRTS Rabat - Rabat",
        "nom_cs": "Agdal Rabat  - Rabat",
        "icon": "1"
    },
    {
        "code": "27311020",
        "nom": "CDTMR Inezgane",
        "abr_categorie": "CDTMR",
        "categorie": "Centre de Diagnostic et de Traitement des Maladies Respiratoires",
        "id_categorie": "9",
        "reseau": "Réseau des Etablissements de Soins de Santé Primaire",
        "abr_reseau": "RESSP",
        "id_reseau": "2",
        "milieu": "Urbain",
        "lon": "-9.53693",
        "lat": "30.352",
        "region": "Souss-Massa",
        "province": "Inezgane Ait Melloul",
        "delegation": "Inezgane Ait Melloul",
        "cs": "Inzgane",
        "commune": "Inezgane (Mun.)",
        "nombre": 1,
        "Indicateur": "Nombre total",
        "periode": "Sans période",
        "Valeur": 1,
        "value": 1,
        "latitude": "30.352",
        "longitude": "-9.53693",
        "key": "CDTMR Inezgane",
        "nom_etab": "27311020 : CDTMR Inezgane - Inezgane Ait Melloul",
        "nom_cs": "Inzgane - Inezgane Ait Melloul",
        "icon": "2"
    },
    {
        "code": "27312004",
        "nom": "CHD Dcheira",
        "abr_categorie": "CHD",
        "categorie": "Centre d'HémoDialyse",
        "id_categorie": "8",
        "reseau": "Réseau Hospitalier",
        "abr_reseau": "RH",
        "id_reseau": "1",
        "milieu": "Rural",
        "lon": "-9.52586",
        "lat": "30.3617",
        "region": "Souss-Massa",
        "province": "Inezgane Ait Melloul",
        "delegation": "Inezgane Ait Melloul",
        "cs": "Temsia",
        "commune": "Temsia",
        "nombre": 1,
        "Indicateur": "Nombre total",
        "periode": "Sans période",
        "Valeur": 1,
        "value": 1,
        "latitude": "30.3617",
        "longitude": "-9.52586",
        "key": "CHD Dcheira",
        "nom_etab": "27312004 : CHD Dcheira - Inezgane Ait Melloul",
        "nom_cs": "Temsia - Inezgane Ait Melloul",
        "icon": "1"
    },
    {
        "code": "57512005",
        "nom": "HPr Kalaat M'gouna",
        "abr_categorie": "HPr",
        "categorie": "Hôpital de Proximité",
        "id_categorie": "4",
        "reseau": "Réseau Hospitalier",
        "abr_reseau": "RH",
        "id_reseau": "1",
        "milieu": "Urbain",
        "lon": "-6.119177",
        "lat": "31.24984",
        "region": "Drâa-Tafilalet",
        "province": "Tinghir",
        "delegation": "Tinghir",
        "cs": "Kalaat M'gouna",
        "commune": "Kalaat M'Gouna (Mun.)",
        "nombre": 1,
        "Indicateur": "Nombre total",
        "periode": "Sans période",
        "Valeur": 1,
        "value": 1,
        "latitude": "31.24984",
        "longitude": "-6.119177",
        "key": "HPr Kalaat M'gouna",
        "nom_etab": "57512005 : HPr Kalaat M'gouna - Tinghir",
        "nom_cs": "Kalaat M'gouna - Tinghir",
        "icon": "1"
    },
    {
        "code": "6101",
        "nom": "SAMU",
        "abr_categorie": "SAMU",
        "categorie": "Service Assistance Médicale d’Urgence",
        "id_categorie": "3",
        "reseau": "Réseau Intégré des Soins d'Urgence Médicale",
        "abr_reseau": "RISUM",
        "id_reseau": "3",
        "milieu": "Urbain",
        "lon": "-5.541215",
        "lat": "33.904403",
        "region": "Fès-Meknès",
        "province": "Meknès",
        "delegation": "Meknes",
        "cs": "Meknes",
        "commune": "Meknès (Mun.)",
        "nombre": 1,
        "Indicateur": "Nombre total",
        "periode": "Sans période",
        "Valeur": 1,
        "value": 1,
        "latitude": "33.904403",
        "longitude": "-5.541215",
        "key": "SAMU",
        "nom_etab": "6101 : SAMU - Meknes",
        "nom_cs": "Meknes - Meknes",
        "icon": "3"
    },
    {
        "code": "23101",
        "nom": "SAMU",
        "abr_categorie": "SAMU",
        "categorie": "Service Assistance Médicale d’Urgence",
        "id_categorie": "3",
        "reseau": "Réseau Intégré des Soins d'Urgence Médicale",
        "abr_reseau": "RISUM",
        "id_reseau": "3",
        "milieu": "Urbain",
        "lon": "-5.05852",
        "lat": "34.007217",
        "region": "Fès-Meknès",
        "province": "Fes",
        "delegation": "Fes",
        "cs": "Saiss ",
        "commune": "Saiss (Arrond.)",
        "nombre": 1,
        "Indicateur": "Nombre total",
        "periode": "Sans période",
        "Valeur": 1,
        "value": 1,
        "latitude": "34.007217",
        "longitude": "-5.05852",
        "key": "SAMU",
        "nom_etab": "23101 : SAMU - Fes",
        "nom_cs": "Saiss  - Fes",
        "icon": "3"
    },
    {
        "code": "32101",
        "nom": "SAMU",
        "abr_categorie": "SAMU",
        "categorie": "Service Assistance Médicale d’Urgence",
        "id_categorie": "3",
        "reseau": "Réseau Intégré des Soins d'Urgence Médicale",
        "abr_reseau": "RISUM",
        "id_reseau": "3",
        "milieu": "Urbain",
        "lon": "-13.1897",
        "lat": "27.1558",
        "region": "Laayoune-Sakia El Hamra",
        "province": "Laayoune",
        "delegation": "Laayoune",
        "cs": "Laayoune",
        "commune": "Laayoune (Mun.)",
        "nombre": 1,
        "Indicateur": "Nombre total",
        "periode": "Sans période",
        "Valeur": 1,
        "value": 1,
        "latitude": "27.1558",
        "longitude": "-13.1897",
        "key": "SAMU",
        "nom_etab": "32101 : SAMU - Laayoune",
        "nom_cs": "Laayoune - Laayoune",
        "icon": "3"
    },
    {
        "code": "41101",
        "nom": "SAMU",
        "abr_categorie": "SAMU",
        "categorie": "Service Assistance Médicale d’Urgence",
        "id_categorie": "3",
        "reseau": "Réseau Intégré des Soins d'Urgence Médicale",
        "abr_reseau": "RISUM",
        "id_reseau": "3",
        "milieu": "Urbain",
        "lon": "-1.911489",
        "lat": "34.656835",
        "region": "Oriental",
        "province": "Oujda Angad",
        "delegation": "Oujda Angad",
        "cs": "Oujda",
        "commune": "Oujda (Mun.)",
        "nombre": 1,
        "Indicateur": "Nombre total",
        "periode": "Sans période",
        "Valeur": 1,
        "value": 1,
        "latitude": "34.656835",
        "longitude": "-1.911489",
        "key": "SAMU",
        "nom_etab": "41101 : SAMU - Oujda Angad",
        "nom_cs": "Oujda - Oujda Angad",
        "icon": "3"
    },
    {
        "code": "51101",
        "nom": "SAMU",
        "abr_categorie": "SAMU",
        "categorie": "Service Assistance Médicale d’Urgence",
        "id_categorie": "3",
        "reseau": "Réseau Intégré des Soins d'Urgence Médicale",
        "abr_reseau": "RISUM",
        "id_reseau": "3",
        "milieu": "Urbain",
        "lon": "-5.8307",
        "lat": "35.7511",
        "region": "Tanger-Tetouan-Al Hoceima",
        "province": "Tanger Assilah",
        "delegation": "Tanger Assilah",
        "cs": "Al Madina ",
        "commune": "Al Madina (Arrond.)",
        "nombre": 1,
        "Indicateur": "Nombre total",
        "periode": "Sans période",
        "Valeur": 1,
        "value": 1,
        "latitude": "35.7511",
        "longitude": "-5.8307",
        "key": "SAMU",
        "nom_etab": "51101 : SAMU - Tanger Assilah",
        "nom_cs": "Al Madina  - Tanger Assilah",
        "icon": "3"
    },
    {
        "code": "51901",
        "nom": "CRTS AlHoceima",
        "abr_categorie": "CRTS",
        "categorie": "Centre Régional de Transfusion Sanguine",
        "id_categorie": "9",
        "reseau": "Réseau Hospitalier",
        "abr_reseau": "RH",
        "id_reseau": "1",
        "milieu": "Urbain",
        "lon": "-3.93944",
        "lat": "35.23957",
        "region": "Tanger-Tetouan-Al Hoceima",
        "province": "Al Hoceima",
        "delegation": "Al Hoceima",
        "cs": "Al Hoceima",
        "commune": "Al Hoceima (Mun.)",
        "nombre": 1,
        "Indicateur": "Nombre total",
        "periode": "Sans période",
        "Valeur": 1,
        "value": 1,
        "latitude": "35.23957",
        "longitude": "-3.93944",
        "key": "CRTS AlHoceima",
        "nom_etab": "51901 : CRTS AlHoceima - Al Hoceima",
        "nom_cs": "Al Hoceima - Al Hoceima",
        "icon": "1"
    },
    {
        "code": "61901",
        "nom": "CRTS Meknés",
        "abr_categorie": "CRTS",
        "categorie": "Centre Régional de Transfusion Sanguine",
        "id_categorie": "9",
        "reseau": "Réseau Hospitalier",
        "abr_reseau": "RH",
        "id_reseau": "1",
        "milieu": "Urbain",
        "lon": "-5.56405555",
        "lat": "33.8974167",
        "region": "Fès-Meknès",
        "province": "Meknès",
        "delegation": "Meknes",
        "cs": "Meknes",
        "commune": "Meknès (Mun.)",
        "nombre": 1,
        "Indicateur": "Nombre total",
        "periode": "Sans période",
        "Valeur": 1,
        "value": 1,
        "latitude": "33.8974167",
        "longitude": "-5.56405555",
        "key": "CRTS Meknés",
        "nom_etab": "61901 : CRTS Meknés - Meknes",
        "nom_cs": "Meknes - Meknes",
        "icon": "1"
    },
    {
        "code": "91901",
        "nom": "CRTS Beni Mellal",
        "abr_categorie": "CRTS",
        "categorie": "Centre Régional de Transfusion Sanguine",
        "id_categorie": "9",
        "reseau": "Réseau Hospitalier",
        "abr_reseau": "RH",
        "id_reseau": "1",
        "milieu": "Urbain",
        "lon": "-6.35391",
        "lat": "32.3287",
        "region": "Béni Mellal-Khénifra",
        "province": "Beni Mellal",
        "delegation": "Beni Mellal",
        "cs": "Beni Mellal",
        "commune": "Béni Mellal (Mun.)",
        "nombre": 1,
        "Indicateur": "Nombre total",
        "periode": "Sans période",
        "Valeur": 1,
        "value": 1,
        "latitude": "32.3287",
        "longitude": "-6.35391",
        "key": "CRTS Beni Mellal",
        "nom_etab": "91901 : CRTS Beni Mellal - Beni Mellal",
        "nom_cs": "Beni Mellal - Beni Mellal",
        "icon": "1"
    },
    {
        "code": "181901",
        "nom": "CRTS Eljadida",
        "abr_categorie": "CRTS",
        "categorie": "Centre Régional de Transfusion Sanguine",
        "id_categorie": "9",
        "reseau": "Réseau Hospitalier",
        "abr_reseau": "RH",
        "id_reseau": "1",
        "milieu": "Urbain",
        "lon": "-8.47979",
        "lat": "33.23443",
        "region": "Casablanca-Settat",
        "province": "El Jadida",
        "delegation": "El Jadida",
        "cs": "El Jadida",
        "commune": "El Jadida (Mun.)",
        "nombre": 1,
        "Indicateur": "Nombre total",
        "periode": "Sans période",
        "Valeur": 1,
        "value": 1,
        "latitude": "33.23443",
        "longitude": "-8.47979",
        "key": "CRTS Eljadida",
        "nom_etab": "181901 : CRTS Eljadida - El Jadida",
        "nom_cs": "El Jadida - El Jadida",
        "icon": "1"
    },
    {
        "code": "201901",
        "nom": "Errachidia",
        "abr_categorie": "CRTS",
        "categorie": "Centre Régional de Transfusion Sanguine",
        "id_categorie": "9",
        "reseau": "Réseau Hospitalier",
        "abr_reseau": "RH",
        "id_reseau": "1",
        "milieu": "Urbain",
        "lon": "-4.41861",
        "lat": "31.9399",
        "region": "Drâa-Tafilalet",
        "province": "Errachidia",
        "delegation": "Errachidia",
        "cs": "Errachidia",
        "commune": "Errachidia (Mun.)",
        "nombre": 1,
        "Indicateur": "Nombre total",
        "periode": "Sans période",
        "Valeur": 1,
        "value": 1,
        "latitude": "31.9399",
        "longitude": "-4.41861",
        "key": "Errachidia",
        "nom_etab": "201901 : Errachidia - Errachidia",
        "nom_cs": "Errachidia - Errachidia",
        "icon": "1"
    },
    {
        "code": "321901",
        "nom": "CRTS Laayoune",
        "abr_categorie": "CRTS",
        "categorie": "Centre Régional de Transfusion Sanguine",
        "id_categorie": "9",
        "reseau": "Réseau Hospitalier",
        "abr_reseau": "RH",
        "id_reseau": "1",
        "milieu": "Urbain",
        "lon": "-13.1897",
        "lat": "27.1558",
        "region": "Laayoune-Sakia El Hamra",
        "province": "Laayoune",
        "delegation": "Laayoune",
        "cs": "Laayoune",
        "commune": "Laayoune (Mun.)",
        "nombre": 1,
        "Indicateur": "Nombre total",
        "periode": "Sans période",
        "Valeur": 1,
        "value": 1,
        "latitude": "27.1558",
        "longitude": "-13.1897",
        "key": "CRTS Laayoune",
        "nom_etab": "321901 : CRTS Laayoune - Laayoune",
        "nom_cs": "Laayoune - Laayoune",
        "icon": "1"
    },
    {
        "code": "431901",
        "nom": "CRTS Safi",
        "abr_categorie": "CRTS",
        "categorie": "Centre Régional de Transfusion Sanguine",
        "id_categorie": "9",
        "reseau": "Réseau Hospitalier",
        "abr_reseau": "RH",
        "id_reseau": "1",
        "milieu": "Urbain",
        "lon": "-9.20303",
        "lat": "32.28791",
        "region": "Marrakech-Safi",
        "province": "Safi",
        "delegation": "Safi",
        "cs": "Safi",
        "commune": "Safi (Mun.)",
        "nombre": 1,
        "Indicateur": "Nombre total",
        "periode": "Sans période",
        "Valeur": 1,
        "value": 1,
        "latitude": "32.28791",
        "longitude": "-9.20303",
        "key": "CRTS Safi",
        "nom_etab": "431901 : CRTS Safi - Safi",
        "nom_cs": "Safi - Safi",
        "icon": "1"
    },
    {
        "code": "571901",
        "nom": "CRTS Tétouan",
        "abr_categorie": "CRTS",
        "categorie": "Centre Régional de Transfusion Sanguine",
        "id_categorie": "9",
        "reseau": "Réseau Hospitalier",
        "abr_reseau": "RH",
        "id_reseau": "1",
        "milieu": "Urbain",
        "lon": "-5.35564",
        "lat": "35.57279",
        "region": "Tanger-Tetouan-Al Hoceima",
        "province": "Tetouan",
        "delegation": "Tetouan",
        "cs": "Tetouan",
        "commune": "Tétouan (Mun.)",
        "nombre": 1,
        "Indicateur": "Nombre total",
        "periode": "Sans période",
        "Valeur": 1,
        "value": 1,
        "latitude": "35.57279",
        "longitude": "-5.35564",
        "key": "CRTS Tétouan",
        "nom_etab": "571901 : CRTS Tétouan - Tetouan",
        "nom_cs": "Tetouan - Tetouan",
        "icon": "1"
    },
    {
        "code": "231901",
        "nom": "CRTS Fès",
        "abr_categorie": "CRTS",
        "categorie": "Centre Régional de Transfusion Sanguine",
        "id_categorie": "9",
        "reseau": "Réseau Hospitalier",
        "abr_reseau": "RH",
        "id_reseau": "1",
        "milieu": "Urbain",
        "lon": "-4.961464",
        "lat": "34.007256",
        "region": "Fès-Meknès",
        "province": "Fes",
        "delegation": "Fes",
        "cs": "Saiss ",
        "commune": "Saiss (Arrond.)",
        "nombre": 1,
        "Indicateur": "Nombre total",
        "periode": "Sans période",
        "Valeur": 1,
        "value": 1,
        "latitude": "34.007256",
        "longitude": "-4.961464",
        "key": "CRTS Fès",
        "nom_etab": "231901 : CRTS Fès - Fes",
        "nom_cs": "Saiss  - Fes",
        "icon": "1"
    },
    {
        "code": "511901",
        "nom": "CRTS Tanger",
        "abr_categorie": "CRTS",
        "categorie": "Centre Régional de Transfusion Sanguine",
        "id_categorie": "9",
        "reseau": "Réseau Hospitalier",
        "abr_reseau": "RH",
        "id_reseau": "1",
        "milieu": "Urbain",
        "lon": "-5.813",
        "lat": "35.7718",
        "region": "Tanger-Tetouan-Al Hoceima",
        "province": "Tanger Assilah",
        "delegation": "Tanger Assilah",
        "cs": "Souani ",
        "commune": "Souani (Arrond.)",
        "nombre": 1,
        "Indicateur": "Nombre total",
        "periode": "Sans période",
        "Valeur": 1,
        "value": 1,
        "latitude": "35.7718",
        "longitude": "-5.813",
        "key": "CRTS Tanger",
        "nom_etab": "511901 : CRTS Tanger - Tanger Assilah",
        "nom_cs": "Souani  - Tanger Assilah",
        "icon": "1"
    },
    {
        "code": "1410101901",
        "nom": "CRTS Casablanca",
        "abr_categorie": "CRTS",
        "categorie": "Centre Régional de Transfusion Sanguine",
        "id_categorie": "9",
        "reseau": "Réseau Hospitalier",
        "abr_reseau": "RH",
        "id_reseau": "1",
        "milieu": "Urbain",
        "lon": "-7.619756",
        "lat": "33.581495",
        "region": "Casablanca-Settat",
        "province": "Casablanca",
        "delegation": "Casablanca Anfa",
        "cs": "Anfa",
        "commune": "Anfa (Arrond.)",
        "nombre": 1,
        "Indicateur": "Nombre total",
        "periode": "Sans période",
        "Valeur": 1,
        "value": 1,
        "latitude": "33.581495",
        "longitude": "-7.619756",
        "key": "CRTS Casablanca",
        "nom_etab": "1410101901 : CRTS Casablanca - Casablanca Anfa",
        "nom_cs": "Anfa - Casablanca Anfa",
        "icon": "1"
    },
    {
        "code": "28140501",
        "nom": "Cité universitaire-Kenitra",
        "abr_categorie": "CMU",
        "categorie": "Centres médico-universitaires",
        "id_categorie": "5",
        "reseau": "Réseau des Etablissements Médico-Sociaux",
        "abr_reseau": "REMS",
        "id_reseau": "4",
        "milieu": "Urbain",
        "lon": "-6.587237",
        "lat": "34.247337",
        "region": "Rabat-Salé-Kénitra",
        "province": "Kenitra",
        "delegation": "Kenitra",
        "cs": "Kenitra",
        "commune": "Kénitra (Mun.)",
        "nombre": 1,
        "Indicateur": "Nombre total",
        "periode": "Sans période",
        "Valeur": 1,
        "value": 1,
        "latitude": "34.247337",
        "longitude": "-6.587237",
        "key": "Cité universitaire-Kenitra",
        "nom_etab": "28140501 : Cité universitaire-Kenitra - Kenitra",
        "nom_cs": "Kenitra - Kenitra",
        "icon": "4"
    },
    {
        "code": "141010101",
        "nom": "SAMU",
        "abr_categorie": "SAMU",
        "categorie": "Service Assistance Médicale d’Urgence",
        "id_categorie": "3",
        "reseau": "Réseau Intégré des Soins d'Urgence Médicale",
        "abr_reseau": "RISUM",
        "id_reseau": "3",
        "milieu": "Urbain",
        "lon": "-7.6204418",
        "lat": "33.57515",
        "region": "Casablanca-Settat",
        "province": "Casablanca",
        "delegation": "Casablanca Anfa",
        "cs": "El Maarif",
        "commune": "El Maarif (Arrond.)",
        "nombre": 1,
        "Indicateur": "Nombre total",
        "periode": "Sans période",
        "Valeur": 1,
        "value": 1,
        "latitude": "33.57515",
        "longitude": "-7.6204418",
        "key": "SAMU",
        "nom_etab": "141010101 : SAMU - Casablanca Anfa",
        "nom_cs": "El Maarif - Casablanca Anfa",
        "icon": "3"
    },
    {
        "code": "23111039",
        "nom": "Ain Bida",
        "abr_categorie": "CSR-1",
        "categorie": "Centre de Santé Rural niveau1",
        "id_categorie": "2",
        "reseau": "Réseau des Etablissements de Soins de Santé Primaire",
        "abr_reseau": "RESSP",
        "id_reseau": "2",
        "milieu": "Rural",
        "lon": "-4.93663",
        "lat": "33.9633",
        "region": "Fès-Meknès",
        "province": "Fes",
        "delegation": "Fes",
        "cs": "Sidi Harazem",
        "commune": "Ain Bida",
        "nombre": 1,
        "Indicateur": "Nombre total",
        "periode": "Sans période",
        "Valeur": 1,
        "value": 1,
        "latitude": "33.9633",
        "longitude": "-4.93663",
        "key": "Ain Bida",
        "nom_etab": "23111039 : Ain Bida - Fes",
        "nom_cs": "Sidi Harazem - Fes",
        "icon": "2"
    },
    {
        "code": "23111040",
        "nom": "Sidi Harazem",
        "abr_categorie": "CSR-1",
        "categorie": "Centre de Santé Rural niveau1",
        "id_categorie": "2",
        "reseau": "Réseau des Etablissements de Soins de Santé Primaire",
        "abr_reseau": "RESSP",
        "id_reseau": "2",
        "milieu": "Rural",
        "lon": "-4.88189",
        "lat": "34.0228",
        "region": "Fès-Meknès",
        "province": "Fes",
        "delegation": "Fes",
        "cs": "Sidi Harazem",
        "commune": "Sidi Harazem",
        "nombre": 1,
        "Indicateur": "Nombre total",
        "periode": "Sans période",
        "Valeur": 1,
        "value": 1,
        "latitude": "34.0228",
        "longitude": "-4.88189",
        "key": "Sidi Harazem",
        "nom_etab": "23111040 : Sidi Harazem - Fes",
        "nom_cs": "Sidi Harazem - Fes",
        "icon": "2"
    },
    {
        "code": "23111041",
        "nom": "Skhinate",
        "abr_categorie": "CSR-1",
        "categorie": "Centre de Santé Rural niveau1",
        "id_categorie": "2",
        "reseau": "Réseau des Etablissements de Soins de Santé Primaire",
        "abr_reseau": "RESSP",
        "id_reseau": "2",
        "milieu": "Rural",
        "lon": "-4.86185",
        "lat": "34.0356",
        "region": "Fès-Meknès",
        "province": "Fes",
        "delegation": "Fes",
        "cs": "Sidi Harazem",
        "commune": "Sidi Harazem",
        "nombre": 1,
        "Indicateur": "Nombre total",
        "periode": "Sans période",
        "Valeur": 1,
        "value": 1,
        "latitude": "34.0356",
        "longitude": "-4.86185",
        "key": "Skhinate",
        "nom_etab": "23111041 : Skhinate - Fes",
        "nom_cs": "Sidi Harazem - Fes",
        "icon": "2"
    },
    {
        "code": "23111042",
        "nom": "Centre De Reference",
        "abr_categorie": "CRSR",
        "categorie": "Centre de Référence en Santé de Reproduction",
        "id_categorie": "8",
        "reseau": "Réseau des Etablissements de Soins de Santé Primaire",
        "abr_reseau": "RESSP",
        "id_reseau": "2",
        "milieu": "Urbain",
        "lon": "-4.98552",
        "lat": "34.0456",
        "region": "Fès-Meknès",
        "province": "Fes",
        "delegation": "Fes",
        "cs": "Agdal ",
        "commune": "Agdal (Arrond.)",
        "nombre": 1,
        "Indicateur": "Nombre total",
        "periode": "Sans période",
        "Valeur": 1,
        "value": 1,
        "latitude": "34.0456",
        "longitude": "-4.98552",
        "key": "Centre De Reference",
        "nom_etab": "23111042 : Centre De Reference - Fes",
        "nom_cs": "Agdal  - Fes",
        "icon": "2"
    },
    {
        "code": "23111043",
        "nom": "Labo. Epidemiologique",
        "abr_categorie": "LSP",
        "categorie": "Laboratoire de santé publique",
        "id_categorie": "1",
        "reseau": "Réseau des Etablissements de Soins de Santé Primaire",
        "abr_reseau": "RESSP",
        "id_reseau": "2",
        "milieu": "Urbain",
        "lon": "-4.98532",
        "lat": "34.0423",
        "region": "Fès-Meknès",
        "province": "Fes",
        "delegation": "Fes",
        "cs": "Agdal ",
        "commune": "Agdal (Arrond.)",
        "nombre": 1,
        "Indicateur": "Nombre total",
        "periode": "Sans période",
        "Valeur": 1,
        "value": 1,
        "latitude": "34.0423",
        "longitude": "-4.98532",
        "key": "Labo. Epidemiologique",
        "nom_etab": "23111043 : Labo. Epidemiologique - Fes",
        "nom_cs": "Agdal  - Fes",
        "icon": "2"
    },
    {
        "code": "6111050",
        "nom": "Moussaoua",
        "abr_categorie": "DR",
        "categorie": "Dispensaire Rural",
        "id_categorie": "7",
        "reseau": "Réseau des Etablissements de Soins de Santé Primaire",
        "abr_reseau": "RESSP",
        "id_reseau": "2",
        "milieu": "Rural",
        "lon": "-5.46106",
        "lat": "34.0127",
        "region": "Fès-Meknès",
        "province": "Meknès",
        "delegation": "Meknes",
        "cs": "Mrhassiyine",
        "commune": "MRhassiyine",
        "nombre": 1,
        "Indicateur": "Nombre total",
        "periode": "Sans période",
        "Valeur": 1,
        "value": 1,
        "latitude": "34.0127",
        "longitude": "-5.46106",
        "key": "Moussaoua",
        "nom_etab": "6111050 : Moussaoua - Meknes",
        "nom_cs": "Mrhassiyine - Meknes",
        "icon": "2"
    },
    {
        "code": "6111051",
        "nom": "S.Abdellah Khayat",
        "abr_categorie": "CSR-1",
        "categorie": "Centre de Santé Rural niveau1",
        "id_categorie": "2",
        "reseau": "Réseau des Etablissements de Soins de Santé Primaire",
        "abr_reseau": "RESSP",
        "id_reseau": "2",
        "milieu": "Rural",
        "lon": "-5.41403",
        "lat": "34.0115",
        "region": "Fès-Meknès",
        "province": "Meknès",
        "delegation": "Meknes",
        "cs": "Mrhassiyine",
        "commune": "Sidi Abdallah Al Khayat",
        "nombre": 1,
        "Indicateur": "Nombre total",
        "periode": "Sans période",
        "Valeur": 1,
        "value": 1,
        "latitude": "34.0115",
        "longitude": "-5.41403",
        "key": "S.Abdellah Khayat",
        "nom_etab": "6111051 : S.Abdellah Khayat - Meknes",
        "nom_cs": "Mrhassiyine - Meknes",
        "icon": "2"
    },
    {
        "code": "6111052",
        "nom": "Talaghza",
        "abr_categorie": "DR",
        "categorie": "Dispensaire Rural",
        "id_categorie": "7",
        "reseau": "Réseau des Etablissements de Soins de Santé Primaire",
        "abr_reseau": "RESSP",
        "id_reseau": "2",
        "milieu": "Rural",
        "lon": "-5.39008",
        "lat": "34.0512",
        "region": "Fès-Meknès",
        "province": "Meknès",
        "delegation": "Meknes",
        "cs": "Mrhassiyine",
        "commune": "Sidi Abdallah Al Khayat",
        "nombre": 1,
        "Indicateur": "Nombre total",
        "periode": "Sans période",
        "Valeur": 1,
        "value": 1,
        "latitude": "34.0512",
        "longitude": "-5.39008",
        "key": "Talaghza",
        "nom_etab": "6111052 : Talaghza - Meknes",
        "nom_cs": "Mrhassiyine - Meknes",
        "icon": "2"
    },
    {
        "code": "6111053",
        "nom": "Ait Sidi Hsaine",
        "abr_categorie": "DR",
        "categorie": "Dispensaire Rural",
        "id_categorie": "7",
        "reseau": "Réseau des Etablissements de Soins de Santé Primaire",
        "abr_reseau": "RESSP",
        "id_reseau": "2",
        "milieu": "Rural",
        "lon": "-5.36896",
        "lat": "34.0001",
        "region": "Fès-Meknès",
        "province": "Meknès",
        "delegation": "Meknes",
        "cs": "Mrhassiyine",
        "commune": "Sidi Abdallah Al Khayat",
        "nombre": 1,
        "Indicateur": "Nombre total",
        "periode": "Sans période",
        "Valeur": 1,
        "value": 1,
        "latitude": "34.0001",
        "longitude": "-5.36896",
        "key": "Ait Sidi Hsaine",
        "nom_etab": "6111053 : Ait Sidi Hsaine - Meknes",
        "nom_cs": "Mrhassiyine - Meknes",
        "icon": "2"
    },
    {
        "code": "6111054",
        "nom": "Sidi Mjahed",
        "abr_categorie": "DR",
        "categorie": "Dispensaire Rural",
        "id_categorie": "7",
        "reseau": "Réseau des Etablissements de Soins de Santé Primaire",
        "abr_reseau": "RESSP",
        "id_reseau": "2",
        "milieu": "Rural",
        "lon": "-5.34136",
        "lat": "34.0324",
        "region": "Fès-Meknès",
        "province": "Meknès",
        "delegation": "Meknes",
        "cs": "Mrhassiyine",
        "commune": "Sidi Abdallah Al Khayat",
        "nombre": 1,
        "Indicateur": "Nombre total",
        "periode": "Sans période",
        "Valeur": 1,
        "value": 1,
        "latitude": "34.0324",
        "longitude": "-5.34136",
        "key": "Sidi Mjahed",
        "nom_etab": "6111054 : Sidi Mjahed - Meknes",
        "nom_cs": "Mrhassiyine - Meknes",
        "icon": "2"
    },
    {
        "code": "6111055",
        "nom": "Charqaoua",
        "abr_categorie": "CSR-1",
        "categorie": "Centre de Santé Rural niveau1",
        "id_categorie": "2",
        "reseau": "Réseau des Etablissements de Soins de Santé Primaire",
        "abr_reseau": "RESSP",
        "id_reseau": "2",
        "milieu": "Rural",
        "lon": "-5.38923",
        "lat": "34.1941",
        "region": "Fès-Meknès",
        "province": "Meknès",
        "delegation": "Meknes",
        "cs": "Nzalat Bni Amar",
        "commune": "Charqaoua",
        "nombre": 1,
        "Indicateur": "Nombre total",
        "periode": "Sans période",
        "Valeur": 1,
        "value": 1,
        "latitude": "34.1941",
        "longitude": "-5.38923",
        "key": "Charqaoua",
        "nom_etab": "6111055 : Charqaoua - Meknes",
        "nom_cs": "Nzalat Bni Amar - Meknes",
        "icon": "2"
    },
    {
        "code": "56111077",
        "nom": "Asrir",
        "abr_categorie": "DR",
        "categorie": "Dispensaire Rural",
        "id_categorie": "7",
        "reseau": "Réseau des Etablissements de Soins de Santé Primaire",
        "abr_reseau": "RESSP",
        "id_reseau": "2",
        "milieu": "Rural",
        "lon": "-3.871",
        "lat": "33.988",
        "region": "Fès-Meknès",
        "province": "Taza",
        "delegation": "Taza",
        "cs": "Maghraoua",
        "commune": "Maghraoua",
        "nombre": 1,
        "Indicateur": "Nombre total",
        "periode": "Sans période",
        "Valeur": 1,
        "value": 1,
        "latitude": "33.988",
        "longitude": "-3.871",
        "key": "Asrir",
        "nom_etab": "56111077 : Asrir - Taza",
        "nom_cs": "Maghraoua - Taza",
        "icon": "2"
    },
    {
        "code": "56140501",
        "nom": "Taza-Centre médico-universitaire",
        "abr_categorie": "CMU",
        "categorie": "Centres médico-universitaires",
        "id_categorie": "5",
        "reseau": "Réseau des Etablissements Médico-Sociaux",
        "abr_reseau": "REMS",
        "id_reseau": "4",
        "milieu": "Urbain",
        "lon": "-3.998",
        "lat": "34.229",
        "region": "Fès-Meknès",
        "province": "Taza",
        "delegation": "Taza",
        "cs": "Taza",
        "commune": "Taza (Mun.)",
        "nombre": 1,
        "Indicateur": "Nombre total",
        "periode": "Sans période",
        "Valeur": 1,
        "value": 1,
        "latitude": "34.229",
        "longitude": "-3.998",
        "key": "Taza-Centre médico-universitaire",
        "nom_etab": "56140501 : Taza-Centre médico-universitaire - Taza",
        "nom_cs": "Taza - Taza",
        "icon": "4"
    },
    {
        "code": "6111056",
        "nom": "Tadla",
        "abr_categorie": "DR",
        "categorie": "Dispensaire Rural",
        "id_categorie": "7",
        "reseau": "Réseau des Etablissements de Soins de Santé Primaire",
        "abr_reseau": "RESSP",
        "id_reseau": "2",
        "milieu": "Rural",
        "lon": "-5.40909",
        "lat": "34.2228",
        "region": "Fès-Meknès",
        "province": "Meknès",
        "delegation": "Meknes",
        "cs": "Nzalat Bni Amar",
        "commune": "Charqaoua",
        "nombre": 1,
        "Indicateur": "Nombre total",
        "periode": "Sans période",
        "Valeur": 1,
        "value": 1,
        "latitude": "34.2228",
        "longitude": "-5.40909",
        "key": "Tadla",
        "nom_etab": "6111056 : Tadla - Meknes",
        "nom_cs": "Nzalat Bni Amar - Meknes",
        "icon": "2"
    },
    {
        "code": "58711017",
        "nom": "Bni Zoli",
        "abr_categorie": "CSR-2",
        "categorie": "Centre de Santé Rural niveau2",
        "id_categorie": "3",
        "reseau": "Réseau des Etablissements de Soins de Santé Primaire",
        "abr_reseau": "RESSP",
        "id_reseau": "2",
        "milieu": "Rural",
        "lon": "-5.89661",
        "lat": "30.4419",
        "region": "Drâa-Tafilalet",
        "province": "Zagora",
        "delegation": "Zagora",
        "cs": "Bni Zoli",
        "commune": "Bni Zoli",
        "nombre": 1,
        "Indicateur": "Nombre total",
        "periode": "Sans période",
        "Valeur": 1,
        "value": 1,
        "latitude": "30.4419",
        "longitude": "-5.89661",
        "key": "Bni Zoli",
        "nom_etab": "58711017 : Bni Zoli - Zagora",
        "nom_cs": "Bni Zoli - Zagora",
        "icon": "2"
    },
    {
        "code": "58711018",
        "nom": "Bouzergane  ",
        "abr_categorie": "DR",
        "categorie": "Dispensaire Rural",
        "id_categorie": "7",
        "reseau": "Réseau des Etablissements de Soins de Santé Primaire",
        "abr_reseau": "RESSP",
        "id_reseau": "2",
        "milieu": "Rural",
        "lon": "-5.845469",
        "lat": "30.4339",
        "region": "Drâa-Tafilalet",
        "province": "Zagora",
        "delegation": "Zagora",
        "cs": "Bni Zoli",
        "commune": "Bni Zoli",
        "nombre": 1,
        "Indicateur": "Nombre total",
        "periode": "Sans période",
        "Valeur": 1,
        "value": 1,
        "latitude": "30.4339",
        "longitude": "-5.845469",
        "key": "Bouzergane  ",
        "nom_etab": "58711018 : Bouzergane   - Zagora",
        "nom_cs": "Bni Zoli - Zagora",
        "icon": "2"
    },
    {
        "code": "58711019",
        "nom": "Taftechna",
        "abr_categorie": "CSR-1",
        "categorie": "Centre de Santé Rural niveau1",
        "id_categorie": "2",
        "reseau": "Réseau des Etablissements de Soins de Santé Primaire",
        "abr_reseau": "RESSP",
        "id_reseau": "2",
        "milieu": "Rural",
        "lon": "-5.952994668",
        "lat": "30.68422189",
        "region": "Drâa-Tafilalet",
        "province": "Zagora",
        "delegation": "Zagora",
        "cs": "Bni Zoli",
        "commune": "Taftechna",
        "nombre": 1,
        "Indicateur": "Nombre total",
        "periode": "Sans période",
        "Valeur": 1,
        "value": 1,
        "latitude": "30.68422189",
        "longitude": "-5.952994668",
        "key": "Taftechna",
        "nom_etab": "58711019 : Taftechna - Zagora",
        "nom_cs": "Bni Zoli - Zagora",
        "icon": "2"
    },
    {
        "code": "6111062",
        "nom": "Ain Bziz",
        "abr_categorie": "DR",
        "categorie": "Dispensaire Rural",
        "id_categorie": "7",
        "reseau": "Réseau des Etablissements de Soins de Santé Primaire",
        "abr_reseau": "RESSP",
        "id_reseau": "2",
        "milieu": "Rural",
        "lon": "-5.54367",
        "lat": "34.122",
        "region": "Fès-Meknès",
        "province": "Meknès",
        "delegation": "Meknes",
        "cs": "Oualili",
        "commune": "Oualili",
        "nombre": 1,
        "Indicateur": "Nombre total",
        "periode": "Sans période",
        "Valeur": 1,
        "value": 1,
        "latitude": "34.122",
        "longitude": "-5.54367",
        "key": "Ain Bziz",
        "nom_etab": "6111062 : Ain Bziz - Meknes",
        "nom_cs": "Oualili - Meknes",
        "icon": "2"
    },
    {
        "code": "6111063",
        "nom": "Karmet Ben Salem",
        "abr_categorie": "DR",
        "categorie": "Dispensaire Rural",
        "id_categorie": "7",
        "reseau": "Réseau des Etablissements de Soins de Santé Primaire",
        "abr_reseau": "RESSP",
        "id_reseau": "2",
        "milieu": "Rural",
        "lon": "-5.5048",
        "lat": "34.1032",
        "region": "Fès-Meknès",
        "province": "Meknès",
        "delegation": "Meknes",
        "cs": "Oualili",
        "commune": "Oualili",
        "nombre": 1,
        "Indicateur": "Nombre total",
        "periode": "Sans période",
        "Valeur": 1,
        "value": 1,
        "latitude": "34.1032",
        "longitude": "-5.5048",
        "key": "Karmet Ben Salem",
        "nom_etab": "6111063 : Karmet Ben Salem - Meknes",
        "nom_cs": "Oualili - Meknes",
        "icon": "2"
    },
    {
        "code": "6111064",
        "nom": "Bouassel",
        "abr_categorie": "DR",
        "categorie": "Dispensaire Rural",
        "id_categorie": "7",
        "reseau": "Réseau des Etablissements de Soins de Santé Primaire",
        "abr_reseau": "RESSP",
        "id_reseau": "2",
        "milieu": "Rural",
        "lon": "-5.567111",
        "lat": "34.039389",
        "region": "Fès-Meknès",
        "province": "Meknès",
        "delegation": "Meknes",
        "cs": "Oualili",
        "commune": "Oualili",
        "nombre": 1,
        "Indicateur": "Nombre total",
        "periode": "Sans période",
        "Valeur": 1,
        "value": 1,
        "latitude": "34.039389",
        "longitude": "-5.567111",
        "key": "Bouassel",
        "nom_etab": "6111064 : Bouassel - Meknes",
        "nom_cs": "Oualili - Meknes",
        "icon": "2"
    },
    {
        "code": "6111065",
        "nom": "CRSR-Meknes",
        "abr_categorie": "CRSR",
        "categorie": "Centre de Référence en Santé de Reproduction",
        "id_categorie": "8",
        "reseau": "Réseau des Etablissements de Soins de Santé Primaire",
        "abr_reseau": "RESSP",
        "id_reseau": "2",
        "milieu": "Urbain",
        "lon": "-5.51578",
        "lat": "33.9031",
        "region": "Fès-Meknès",
        "province": "Meknès",
        "delegation": "Meknes",
        "cs": "Meknes",
        "commune": "Meknès (Mun.)",
        "nombre": 1,
        "Indicateur": "Nombre total",
        "periode": "Sans période",
        "Valeur": 1,
        "value": 1,
        "latitude": "33.9031",
        "longitude": "-5.51578",
        "key": "CRSR-Meknes",
        "nom_etab": "6111065 : CRSR-Meknes - Meknes",
        "nom_cs": "Meknes - Meknes",
        "icon": "2"
    },
    {
        "code": "6111066",
        "nom": "CDTMR Sidi Said",
        "abr_categorie": "CDTMR",
        "categorie": "Centre de Diagnostic et de Traitement des Maladies Respiratoires",
        "id_categorie": "9",
        "reseau": "Réseau des Etablissements de Soins de Santé Primaire",
        "abr_reseau": "RESSP",
        "id_reseau": "2",
        "milieu": "Urbain",
        "lon": "-5.57696",
        "lat": "33.8937",
        "region": "Fès-Meknès",
        "province": "Meknès",
        "delegation": "Meknes",
        "cs": "Meknes",
        "commune": "Meknès (Mun.)",
        "nombre": 1,
        "Indicateur": "Nombre total",
        "periode": "Sans période",
        "Valeur": 1,
        "value": 1,
        "latitude": "33.8937",
        "longitude": "-5.57696",
        "key": "CDTMR Sidi Said",
        "nom_etab": "6111066 : CDTMR Sidi Said - Meknes",
        "nom_cs": "Meknes - Meknes",
        "icon": "2"
    },
    {
        "code": "6111067",
        "nom": "LEHM-Meknes",
        "abr_categorie": "LSP",
        "categorie": "Laboratoire de santé publique",
        "id_categorie": "1",
        "reseau": "Réseau des Etablissements de Soins de Santé Primaire",
        "abr_reseau": "RESSP",
        "id_reseau": "2",
        "milieu": "Urbain",
        "lon": "-5.54202",
        "lat": "33.8925",
        "region": "Fès-Meknès",
        "province": "Meknès",
        "delegation": "Meknes",
        "cs": "Meknes",
        "commune": "Meknès (Mun.)",
        "nombre": 1,
        "Indicateur": "Nombre total",
        "periode": "Sans période",
        "Valeur": 1,
        "value": 1,
        "latitude": "33.8925",
        "longitude": "-5.54202",
        "key": "LEHM-Meknes",
        "nom_etab": "6111067 : LEHM-Meknes - Meknes",
        "nom_cs": "Meknes - Meknes",
        "icon": "2"
    },
    {
        "code": "6112001",
        "nom": "Sidi Said",
        "abr_categorie": "HP",
        "categorie": "Hôpital Provincial/Préfectoral",
        "id_categorie": "1",
        "reseau": "Réseau Hospitalier",
        "abr_reseau": "RH",
        "id_reseau": "1",
        "milieu": "Urbain",
        "lon": "-5.57858",
        "lat": "33.8927",
        "region": "Fès-Meknès",
        "province": "Meknès",
        "delegation": "Meknes",
        "cs": "Meknes",
        "commune": "Meknès (Mun.)",
        "nombre": 1,
        "Indicateur": "Nombre total",
        "periode": "Sans période",
        "Valeur": 1,
        "value": 1,
        "latitude": "33.8927",
        "longitude": "-5.57858",
        "key": "Sidi Said",
        "nom_etab": "6112001 : Sidi Said - Meknes",
        "nom_cs": "Meknes - Meknes",
        "icon": "1"
    },
    {
        "code": "6112002",
        "nom": "Mohamed V",
        "abr_categorie": "HP",
        "categorie": "Hôpital Provincial/Préfectoral",
        "id_categorie": "1",
        "reseau": "Réseau Hospitalier",
        "abr_reseau": "RH",
        "id_reseau": "1",
        "milieu": "Urbain",
        "lon": "-5.54158",
        "lat": "33.9041",
        "region": "Fès-Meknès",
        "province": "Meknès",
        "delegation": "Meknes",
        "cs": "Meknes",
        "commune": "Meknès (Mun.)",
        "nombre": 1,
        "Indicateur": "Nombre total",
        "periode": "Sans période",
        "Valeur": 1,
        "value": 1,
        "latitude": "33.9041",
        "longitude": "-5.54158",
        "key": "Mohamed V",
        "nom_etab": "6112002 : Mohamed V - Meknes",
        "nom_cs": "Meknes - Meknes",
        "icon": "1"
    },
    {
        "code": "6112003",
        "nom": "Pagnon",
        "abr_categorie": "HP",
        "categorie": "Hôpital Provincial/Préfectoral",
        "id_categorie": "1",
        "reseau": "Réseau Hospitalier",
        "abr_reseau": "RH",
        "id_reseau": "1",
        "milieu": "Urbain",
        "lon": "-5.51504",
        "lat": "33.9034",
        "region": "Fès-Meknès",
        "province": "Meknès",
        "delegation": "Meknes",
        "cs": "Meknes",
        "commune": "Meknès (Mun.)",
        "nombre": 1,
        "Indicateur": "Nombre total",
        "periode": "Sans période",
        "Valeur": 1,
        "value": 1,
        "latitude": "33.9034",
        "longitude": "-5.51504",
        "key": "Pagnon",
        "nom_etab": "6112003 : Pagnon - Meknes",
        "nom_cs": "Meknes - Meknes",
        "icon": "1"
    },
    {
        "code": "6112004",
        "nom": "Moulay Ismail",
        "abr_categorie": "HP",
        "categorie": "Hôpital Provincial/Préfectoral",
        "id_categorie": "1",
        "reseau": "Réseau Hospitalier",
        "abr_reseau": "RH",
        "id_reseau": "1",
        "milieu": "Urbain",
        "lon": "-5.54619",
        "lat": "33.8934",
        "region": "Fès-Meknès",
        "province": "Meknès",
        "delegation": "Meknes",
        "cs": "Meknes",
        "commune": "Meknès (Mun.)",
        "nombre": 1,
        "Indicateur": "Nombre total",
        "periode": "Sans période",
        "Valeur": 1,
        "value": 1,
        "latitude": "33.8934",
        "longitude": "-5.54619",
        "key": "Moulay Ismail",
        "nom_etab": "6112004 : Moulay Ismail - Meknes",
        "nom_cs": "Meknes - Meknes",
        "icon": "1"
    },
    {
        "code": "6112005",
        "nom": "Meknes-Hôp. My Ismail",
        "abr_categorie": "CHD",
        "categorie": "Centre d'HémoDialyse",
        "id_categorie": "8",
        "reseau": "Réseau Hospitalier",
        "abr_reseau": "RH",
        "id_reseau": "1",
        "milieu": "Urbain",
        "lon": "-5.54619",
        "lat": "33.8934",
        "region": "Fès-Meknès",
        "province": "Meknès",
        "delegation": "Meknes",
        "cs": "Meknes",
        "commune": "Meknès (Mun.)",
        "nombre": 1,
        "Indicateur": "Nombre total",
        "periode": "Sans période",
        "Valeur": 1,
        "value": 1,
        "latitude": "33.8934",
        "longitude": "-5.54619",
        "key": "Meknes-Hôp. My Ismail",
        "nom_etab": "6112005 : Meknes-Hôp. My Ismail - Meknes",
        "nom_cs": "Meknes - Meknes",
        "icon": "1"
    },
    {
        "code": "6140102",
        "nom": "Espace Santé Jeunes Oum Er-rbie",
        "abr_categorie": "ESJ",
        "categorie": "Espace « santé-jeunes »",
        "id_categorie": "1",
        "reseau": "Réseau des Etablissements Médico-Sociaux",
        "abr_reseau": "REMS",
        "id_reseau": "4",
        "milieu": "Urbain",
        "lon": "-5.53591",
        "lat": "33.9064",
        "region": "Fès-Meknès",
        "province": "Meknès",
        "delegation": "Meknes",
        "cs": "Meknes",
        "commune": "Meknès (Mun.)",
        "nombre": 1,
        "Indicateur": "Nombre total",
        "periode": "Sans période",
        "Valeur": 1,
        "value": 1,
        "latitude": "33.9064",
        "longitude": "-5.53591",
        "key": "Espace Santé Jeunes Oum Er-rbie",
        "nom_etab": "6140102 : Espace Santé Jeunes Oum Er-rbie - Meknes",
        "nom_cs": "Meknes - Meknes",
        "icon": "4"
    },
    {
        "code": "27114001",
        "nom": "Al akhawayn",
        "abr_categorie": "CMU",
        "categorie": "Centres médico-universitaires",
        "id_categorie": "5",
        "reseau": "Réseau des Etablissements Médico-Sociaux",
        "abr_reseau": "REMS",
        "id_reseau": "4",
        "milieu": "Urbain",
        "lon": "-5.105664",
        "lat": "33.53955",
        "region": "Fès-Meknès",
        "province": "Ifrane",
        "delegation": "Ifrane",
        "cs": "Ifrane",
        "commune": "Ifrane (Mun.)",
        "nombre": 1,
        "Indicateur": "Nombre total",
        "periode": "Sans période",
        "Valeur": 1,
        "value": 1,
        "latitude": "33.53955",
        "longitude": "-5.105664",
        "key": "Al akhawayn",
        "nom_etab": "27114001 : Al akhawayn - Ifrane",
        "nom_cs": "Ifrane - Ifrane",
        "icon": "4"
    },
    {
        "code": "6140301",
        "nom": "CIPR (Hôpital Moulay Ismail)",
        "abr_categorie": "CIPR",
        "categorie": "Centres de rééducation physique, d’orthoptie et d’orthophonie CRPOO (=CIPR)",
        "id_categorie": "2",
        "reseau": "Réseau des Etablissements Médico-Sociaux",
        "abr_reseau": "REMS",
        "id_reseau": "4",
        "milieu": "Urbain",
        "lon": "-6.259",
        "lat": "32.588",
        "region": "Béni Mellal-Khénifra",
        "province": "Beni Mellal",
        "delegation": "Beni Mellal",
        "cs": "Kasba Tadla",
        "commune": "Kasba Tadla (Mun.)",
        "nombre": 1,
        "Indicateur": "Nombre total",
        "periode": "Sans période",
        "Valeur": 1,
        "value": 1,
        "latitude": "32.588",
        "longitude": "-6.259",
        "key": "CIPR (Hôpital Moulay Ismail)",
        "nom_etab": "6140301 : CIPR (Hôpital Moulay Ismail) - Beni Mellal",
        "nom_cs": "Kasba Tadla - Beni Mellal",
        "icon": "4"
    },
    {
        "code": "6140501",
        "nom": "Cité universitaire",
        "abr_categorie": "CMU",
        "categorie": "Centres médico-universitaires",
        "id_categorie": "5",
        "reseau": "Réseau des Etablissements Médico-Sociaux",
        "abr_reseau": "REMS",
        "id_reseau": "4",
        "milieu": "Urbain",
        "lon": "-5.5494166",
        "lat": "33.8592222",
        "region": "Fès-Meknès",
        "province": "Meknès",
        "delegation": "Meknes",
        "cs": "Meknes",
        "commune": "Meknès (Mun.)",
        "nombre": 1,
        "Indicateur": "Nombre total",
        "periode": "Sans période",
        "Valeur": 1,
        "value": 1,
        "latitude": "33.8592222",
        "longitude": "-5.5494166",
        "key": "Cité universitaire",
        "nom_etab": "6140501 : Cité universitaire - Meknes",
        "nom_cs": "Meknes - Meknes",
        "icon": "4"
    },
    {
        "code": "6611001",
        "nom": "Aousserd",
        "abr_categorie": "CSR-2",
        "categorie": "Centre de Santé Rural niveau2",
        "id_categorie": "3",
        "reseau": "Réseau des Etablissements de Soins de Santé Primaire",
        "abr_reseau": "RESSP",
        "id_reseau": "2",
        "milieu": "Rural",
        "lon": "-14.5648",
        "lat": "22.4683",
        "region": "Eddakhla-Oued Eddahab",
        "province": "Aousserd",
        "delegation": "Aousserd",
        "cs": "Aousserd",
        "commune": "Aousserd",
        "nombre": 1,
        "Indicateur": "Nombre total",
        "periode": "Sans période",
        "Valeur": 1,
        "value": 1,
        "latitude": "22.4683",
        "longitude": "-14.5648",
        "key": "Aousserd",
        "nom_etab": "6611001 : Aousserd - Aousserd",
        "nom_cs": "Aousserd - Aousserd",
        "icon": "2"
    },
    {
        "code": "6611002",
        "nom": "Bir Gandouz",
        "abr_categorie": "CSR-2",
        "categorie": "Centre de Santé Rural niveau2",
        "id_categorie": "3",
        "reseau": "Réseau des Etablissements de Soins de Santé Primaire",
        "abr_reseau": "RESSP",
        "id_reseau": "2",
        "milieu": "Rural",
        "lon": "-16.6197",
        "lat": "21.9933",
        "region": "Eddakhla-Oued Eddahab",
        "province": "Aousserd",
        "delegation": "Aousserd",
        "cs": "Bir Gandouz",
        "commune": "Bir Gandouz",
        "nombre": 1,
        "Indicateur": "Nombre total",
        "periode": "Sans période",
        "Valeur": 1,
        "value": 1,
        "latitude": "21.9933",
        "longitude": "-16.6197",
        "key": "Bir Gandouz",
        "nom_etab": "6611002 : Bir Gandouz - Aousserd",
        "nom_cs": "Bir Gandouz - Aousserd",
        "icon": "2"
    },
    {
        "code": "6611003",
        "nom": "Mhiriz (Rock Chiko)",
        "abr_categorie": "DR",
        "categorie": "Dispensaire Rural",
        "id_categorie": "7",
        "reseau": "Réseau des Etablissements de Soins de Santé Primaire",
        "abr_reseau": "RESSP",
        "id_reseau": "2",
        "milieu": "Rural",
        "lon": "-16.5847",
        "lat": "22.0542",
        "region": "Eddakhla-Oued Eddahab",
        "province": "Aousserd",
        "delegation": "Aousserd",
        "cs": "Bir Gandouz",
        "commune": "Bir Gandouz",
        "nombre": 1,
        "Indicateur": "Nombre total",
        "periode": "Sans période",
        "Valeur": 1,
        "value": 1,
        "latitude": "22.0542",
        "longitude": "-16.5847",
        "key": "Mhiriz (Rock Chiko)",
        "nom_etab": "6611003 : Mhiriz (Rock Chiko) - Aousserd",
        "nom_cs": "Bir Gandouz - Aousserd",
        "icon": "2"
    },
    {
        "code": "6611004",
        "nom": "Guergarat",
        "abr_categorie": "DR",
        "categorie": "Dispensaire Rural",
        "id_categorie": "7",
        "reseau": "Réseau des Etablissements de Soins de Santé Primaire",
        "abr_reseau": "RESSP",
        "id_reseau": "2",
        "milieu": "Rural",
        "lon": "-16.95984",
        "lat": "21.42683",
        "region": "Eddakhla-Oued Eddahab",
        "province": "Aousserd",
        "delegation": "Aousserd",
        "cs": "Bir Gandouz",
        "commune": "Bir Gandouz",
        "nombre": 1,
        "Indicateur": "Nombre total",
        "periode": "Sans période",
        "Valeur": 1,
        "value": 1,
        "latitude": "21.42683",
        "longitude": "-16.95984",
        "key": "Guergarat",
        "nom_etab": "6611004 : Guergarat - Aousserd",
        "nom_cs": "Bir Gandouz - Aousserd",
        "icon": "2"
    },
    {
        "code": "7111001",
        "nom": "Aljorf",
        "abr_categorie": "CSU-1",
        "categorie": "Centre de Santé Urbain niveau1",
        "id_categorie": "5",
        "reseau": "Réseau des Etablissements de Soins de Santé Primaire",
        "abr_reseau": "RESSP",
        "id_reseau": "2",
        "milieu": "Urbain",
        "lon": "-9.41796",
        "lat": "28.59969",
        "region": "Guelmim-Oued Noun",
        "province": "Assa-zag",
        "delegation": "Assa-zag",
        "cs": "Assa",
        "commune": "Assa (Mun.)",
        "nombre": 1,
        "Indicateur": "Nombre total",
        "periode": "Sans période",
        "Valeur": 1,
        "value": 1,
        "latitude": "28.59969",
        "longitude": "-9.41796",
        "key": "Aljorf",
        "nom_etab": "7111001 : Aljorf - Assa-zag",
        "nom_cs": "Assa - Assa-zag",
        "icon": "2"
    },
    {
        "code": "7111002",
        "nom": "Hay Al filahi (Assa II)",
        "abr_categorie": "CSU-1",
        "categorie": "Centre de Santé Urbain niveau1",
        "id_categorie": "5",
        "reseau": "Réseau des Etablissements de Soins de Santé Primaire",
        "abr_reseau": "RESSP",
        "id_reseau": "2",
        "milieu": "Urbain",
        "lon": "-9.42706",
        "lat": "28.6111",
        "region": "Guelmim-Oued Noun",
        "province": "Assa-zag",
        "delegation": "Assa-zag",
        "cs": "Assa",
        "commune": "Assa (Mun.)",
        "nombre": 1,
        "Indicateur": "Nombre total",
        "periode": "Sans période",
        "Valeur": 1,
        "value": 1,
        "latitude": "28.6111",
        "longitude": "-9.42706",
        "key": "Hay Al filahi (Assa II)",
        "nom_etab": "7111002 : Hay Al filahi (Assa II) - Assa-zag",
        "nom_cs": "Assa - Assa-zag",
        "icon": "2"
    },
    {
        "code": "7111003",
        "nom": "Tihouna",
        "abr_categorie": "CSU-1",
        "categorie": "Centre de Santé Urbain niveau1",
        "id_categorie": "5",
        "reseau": "Réseau des Etablissements de Soins de Santé Primaire",
        "abr_reseau": "RESSP",
        "id_reseau": "2",
        "milieu": "Urbain",
        "lon": "-9.42289",
        "lat": "28.61438",
        "region": "Guelmim-Oued Noun",
        "province": "Assa-zag",
        "delegation": "Assa-zag",
        "cs": "Assa",
        "commune": "Assa (Mun.)",
        "nombre": 1,
        "Indicateur": "Nombre total",
        "periode": "Sans période",
        "Valeur": 1,
        "value": 1,
        "latitude": "28.61438",
        "longitude": "-9.42289",
        "key": "Tihouna",
        "nom_etab": "7111003 : Tihouna - Assa-zag",
        "nom_cs": "Assa - Assa-zag",
        "icon": "2"
    },
    {
        "code": "7111004",
        "nom": "Hay Al Moustachfa",
        "abr_categorie": "CSU-1",
        "categorie": "Centre de Santé Urbain niveau1",
        "id_categorie": "5",
        "reseau": "Réseau des Etablissements de Soins de Santé Primaire",
        "abr_reseau": "RESSP",
        "id_reseau": "2",
        "milieu": "Urbain",
        "lon": "-9.43297",
        "lat": "28.61044",
        "region": "Guelmim-Oued Noun",
        "province": "Assa-zag",
        "delegation": "Assa-zag",
        "cs": "Assa",
        "commune": "Assa (Mun.)",
        "nombre": 1,
        "Indicateur": "Nombre total",
        "periode": "Sans période",
        "Valeur": 1,
        "value": 1,
        "latitude": "28.61044",
        "longitude": "-9.43297",
        "key": "Hay Al Moustachfa",
        "nom_etab": "7111004 : Hay Al Moustachfa - Assa-zag",
        "nom_cs": "Assa - Assa-zag",
        "icon": "2"
    },
    {
        "code": "7111005",
        "nom": "Zag",
        "abr_categorie": "CSU-2",
        "categorie": "Centre de Santé Urbain niveau2",
        "id_categorie": "6",
        "reseau": "Réseau des Etablissements de Soins de Santé Primaire",
        "abr_reseau": "RESSP",
        "id_reseau": "2",
        "milieu": "Urbain",
        "lon": "-9.2942",
        "lat": "28.0285",
        "region": "Guelmim-Oued Noun",
        "province": "Assa-zag",
        "delegation": "Assa-zag",
        "cs": "Zag",
        "commune": "Zag (Mun.)",
        "nombre": 1,
        "Indicateur": "Nombre total",
        "periode": "Sans période",
        "Valeur": 1,
        "value": 1,
        "latitude": "28.0285",
        "longitude": "-9.2942",
        "key": "Zag",
        "nom_etab": "7111005 : Zag - Assa-zag",
        "nom_cs": "Zag - Assa-zag",
        "icon": "2"
    },
    {
        "code": "7111006",
        "nom": "Aouint Yghomane",
        "abr_categorie": "CSR-2",
        "categorie": "Centre de Santé Rural niveau2",
        "id_categorie": "3",
        "reseau": "Réseau des Etablissements de Soins de Santé Primaire",
        "abr_reseau": "RESSP",
        "id_reseau": "2",
        "milieu": "Rural",
        "lon": "-10.4303",
        "lat": "28.4166",
        "region": "Guelmim-Oued Noun",
        "province": "Assa-zag",
        "delegation": "Assa-zag",
        "cs": "A.Yghomane",
        "commune": "Aouint Yghomane",
        "nombre": 1,
        "Indicateur": "Nombre total",
        "periode": "Sans période",
        "Valeur": 1,
        "value": 1,
        "latitude": "28.4166",
        "longitude": "-10.4303",
        "key": "Aouint Yghomane",
        "nom_etab": "7111006 : Aouint Yghomane - Assa-zag",
        "nom_cs": "A.Yghomane - Assa-zag",
        "icon": "2"
    },
    {
        "code": "7111007",
        "nom": "Aouint Lahna",
        "abr_categorie": "CSR-2",
        "categorie": "Centre de Santé Rural niveau2",
        "id_categorie": "3",
        "reseau": "Réseau des Etablissements de Soins de Santé Primaire",
        "abr_reseau": "RESSP",
        "id_reseau": "2",
        "milieu": "Rural",
        "lon": "-9.81114",
        "lat": "28.4933",
        "region": "Guelmim-Oued Noun",
        "province": "Assa-zag",
        "delegation": "Assa-zag",
        "cs": "Aouint Lahna",
        "commune": "Aouint Lahna",
        "nombre": 1,
        "Indicateur": "Nombre total",
        "periode": "Sans période",
        "Valeur": 1,
        "value": 1,
        "latitude": "28.4933",
        "longitude": "-9.81114",
        "key": "Aouint Lahna",
        "nom_etab": "7111007 : Aouint Lahna - Assa-zag",
        "nom_cs": "Aouint Lahna - Assa-zag",
        "icon": "2"
    },
    {
        "code": "7111008",
        "nom": "Touizgui",
        "abr_categorie": "DR",
        "categorie": "Dispensaire Rural",
        "id_categorie": "7",
        "reseau": "Réseau des Etablissements de Soins de Santé Primaire",
        "abr_reseau": "RESSP",
        "id_reseau": "2",
        "milieu": "Rural",
        "lon": "-9.2754",
        "lat": "28.5666",
        "region": "Guelmim-Oued Noun",
        "province": "Assa-zag",
        "delegation": "Assa-zag",
        "cs": "Touizgui",
        "commune": "Touizgui",
        "nombre": 1,
        "Indicateur": "Nombre total",
        "periode": "Sans période",
        "Valeur": 1,
        "value": 1,
        "latitude": "28.5666",
        "longitude": "-9.2754",
        "key": "Touizgui",
        "nom_etab": "7111008 : Touizgui - Assa-zag",
        "nom_cs": "Touizgui - Assa-zag",
        "icon": "2"
    },
    {
        "code": "7111009",
        "nom": "Al Mahbass",
        "abr_categorie": "DR",
        "categorie": "Dispensaire Rural",
        "id_categorie": "7",
        "reseau": "Réseau des Etablissements de Soins de Santé Primaire",
        "abr_reseau": "RESSP",
        "id_reseau": "2",
        "milieu": "Rural",
        "lon": "-9.00474",
        "lat": "27.5763",
        "region": "Guelmim-Oued Noun",
        "province": "Assa-zag",
        "delegation": "Assa-zag",
        "cs": "Al Mahbass",
        "commune": "Al Mahbass",
        "nombre": 1,
        "Indicateur": "Nombre total",
        "periode": "Sans période",
        "Valeur": 1,
        "value": 1,
        "latitude": "27.5763",
        "longitude": "-9.00474",
        "key": "Al Mahbass",
        "nom_etab": "7111009 : Al Mahbass - Assa-zag",
        "nom_cs": "Al Mahbass - Assa-zag",
        "icon": "2"
    },
    {
        "code": "7111010",
        "nom": "Labouirat",
        "abr_categorie": "CSR-1",
        "categorie": "Centre de Santé Rural niveau1",
        "id_categorie": "2",
        "reseau": "Réseau des Etablissements de Soins de Santé Primaire",
        "abr_reseau": "RESSP",
        "id_reseau": "2",
        "milieu": "Rural",
        "lon": "-9.83895",
        "lat": "27.9447",
        "region": "Guelmim-Oued Noun",
        "province": "Assa-zag",
        "delegation": "Assa-zag",
        "cs": "Labouirat",
        "commune": "Labouirat",
        "nombre": 1,
        "Indicateur": "Nombre total",
        "periode": "Sans période",
        "Valeur": 1,
        "value": 1,
        "latitude": "27.9447",
        "longitude": "-9.83895",
        "key": "Labouirat",
        "nom_etab": "7111010 : Labouirat - Assa-zag",
        "nom_cs": "Labouirat - Assa-zag",
        "icon": "2"
    },
    {
        "code": "7111011",
        "nom": "Assa",
        "abr_categorie": "LSP",
        "categorie": "Laboratoire de santé publique",
        "id_categorie": "1",
        "reseau": "Réseau des Etablissements de Soins de Santé Primaire",
        "abr_reseau": "RESSP",
        "id_reseau": "2",
        "milieu": "Urbain",
        "lon": "-9.43304",
        "lat": "28.6105",
        "region": "Guelmim-Oued Noun",
        "province": "Assa-zag",
        "delegation": "Assa-zag",
        "cs": "Assa",
        "commune": "Assa (Mun.)",
        "nombre": 1,
        "Indicateur": "Nombre total",
        "periode": "Sans période",
        "Valeur": 1,
        "value": 1,
        "latitude": "28.6105",
        "longitude": "-9.43304",
        "key": "Assa",
        "nom_etab": "7111011 : Assa - Assa-zag",
        "nom_cs": "Assa - Assa-zag",
        "icon": "2"
    },
    {
        "code": "7112001",
        "nom": "Assa",
        "abr_categorie": "HP",
        "categorie": "Hôpital Provincial/Préfectoral",
        "id_categorie": "1",
        "reseau": "Réseau Hospitalier",
        "abr_reseau": "RH",
        "id_reseau": "1",
        "milieu": "Urbain",
        "lon": "-9.45332",
        "lat": "28.6176",
        "region": "Guelmim-Oued Noun",
        "province": "Assa-zag",
        "delegation": "Assa-zag",
        "cs": "Assa",
        "commune": "Assa (Mun.)",
        "nombre": 1,
        "Indicateur": "Nombre total",
        "periode": "Sans période",
        "Valeur": 1,
        "value": 1,
        "latitude": "28.6176",
        "longitude": "-9.45332",
        "key": "Assa",
        "nom_etab": "7112001 : Assa - Assa-zag",
        "nom_cs": "Assa - Assa-zag",
        "icon": "1"
    },
    {
        "code": "8111001",
        "nom": "Azilal",
        "abr_categorie": "CSU-1",
        "categorie": "Centre de Santé Urbain niveau1",
        "id_categorie": "5",
        "reseau": "Réseau des Etablissements de Soins de Santé Primaire",
        "abr_reseau": "RESSP",
        "id_reseau": "2",
        "milieu": "Urbain",
        "lon": "-6.57022",
        "lat": "31.9595",
        "region": "Béni Mellal-Khénifra",
        "province": "Azilal",
        "delegation": "Azilal",
        "cs": "Azilal",
        "commune": "Azilal (Mun.)",
        "nombre": 1,
        "Indicateur": "Nombre total",
        "periode": "Sans période",
        "Valeur": 1,
        "value": 1,
        "latitude": "31.9595",
        "longitude": "-6.57022",
        "key": "Azilal",
        "nom_etab": "8111001 : Azilal - Azilal",
        "nom_cs": "Azilal - Azilal",
        "icon": "2"
    },
    {
        "code": "8111002",
        "nom": "Q. Administratif",
        "abr_categorie": "CSU-1",
        "categorie": "Centre de Santé Urbain niveau1",
        "id_categorie": "5",
        "reseau": "Réseau des Etablissements de Soins de Santé Primaire",
        "abr_reseau": "RESSP",
        "id_reseau": "2",
        "milieu": "Urbain",
        "lon": "-6.56791",
        "lat": "31.968",
        "region": "Béni Mellal-Khénifra",
        "province": "Azilal",
        "delegation": "Azilal",
        "cs": "Azilal",
        "commune": "Azilal (Mun.)",
        "nombre": 1,
        "Indicateur": "Nombre total",
        "periode": "Sans période",
        "Valeur": 1,
        "value": 1,
        "latitude": "31.968",
        "longitude": "-6.56791",
        "key": "Q. Administratif",
        "nom_etab": "8111002 : Q. Administratif - Azilal",
        "nom_cs": "Azilal - Azilal",
        "icon": "2"
    },
    {
        "code": "8111003",
        "nom": "Tichibite",
        "abr_categorie": "CSU-1",
        "categorie": "Centre de Santé Urbain niveau1",
        "id_categorie": "5",
        "reseau": "Réseau des Etablissements de Soins de Santé Primaire",
        "abr_reseau": "RESSP",
        "id_reseau": "2",
        "milieu": "Urbain",
        "lon": "-6.58536",
        "lat": "31.94811",
        "region": "Béni Mellal-Khénifra",
        "province": "Azilal",
        "delegation": "Azilal",
        "cs": "Azilal",
        "commune": "Azilal (Mun.)",
        "nombre": 1,
        "Indicateur": "Nombre total",
        "periode": "Sans période",
        "Valeur": 1,
        "value": 1,
        "latitude": "31.94811",
        "longitude": "-6.58536",
        "key": "Tichibite",
        "nom_etab": "8111003 : Tichibite - Azilal",
        "nom_cs": "Azilal - Azilal",
        "icon": "2"
    },
    {
        "code": "8111004",
        "nom": "Demnate",
        "abr_categorie": "CSU-1",
        "categorie": "Centre de Santé Urbain niveau1",
        "id_categorie": "5",
        "reseau": "Réseau des Etablissements de Soins de Santé Primaire",
        "abr_reseau": "RESSP",
        "id_reseau": "2",
        "milieu": "Urbain",
        "lon": "-7.00818",
        "lat": "31.7398",
        "region": "Béni Mellal-Khénifra",
        "province": "Azilal",
        "delegation": "Azilal",
        "cs": "Demnate",
        "commune": "Demnate (Mun.)",
        "nombre": 1,
        "Indicateur": "Nombre total",
        "periode": "Sans période",
        "Valeur": 1,
        "value": 1,
        "latitude": "31.7398",
        "longitude": "-7.00818",
        "key": "Demnate",
        "nom_etab": "8111004 : Demnate - Azilal",
        "nom_cs": "Demnate - Azilal",
        "icon": "2"
    },
    {
        "code": "8111005",
        "nom": "Demnat Kasbah",
        "abr_categorie": "CSU-1",
        "categorie": "Centre de Santé Urbain niveau1",
        "id_categorie": "5",
        "reseau": "Réseau des Etablissements de Soins de Santé Primaire",
        "abr_reseau": "RESSP",
        "id_reseau": "2",
        "milieu": "Urbain",
        "lon": "-6.99947",
        "lat": "31.7318",
        "region": "Béni Mellal-Khénifra",
        "province": "Azilal",
        "delegation": "Azilal",
        "cs": "Demnate",
        "commune": "Demnate (Mun.)",
        "nombre": 1,
        "Indicateur": "Nombre total",
        "periode": "Sans période",
        "Valeur": 1,
        "value": 1,
        "latitude": "31.7318",
        "longitude": "-6.99947",
        "key": "Demnat Kasbah",
        "nom_etab": "8111005 : Demnat Kasbah - Azilal",
        "nom_cs": "Demnate - Azilal",
        "icon": "2"
    },
    {
        "code": "8111006",
        "nom": "Agoudid",
        "abr_categorie": "CSR-2",
        "categorie": "Centre de Santé Rural niveau2",
        "id_categorie": "3",
        "reseau": "Réseau des Etablissements de Soins de Santé Primaire",
        "abr_reseau": "RESSP",
        "id_reseau": "2",
        "milieu": "Rural",
        "lon": "-6.54533",
        "lat": "31.9787",
        "region": "Béni Mellal-Khénifra",
        "province": "Azilal",
        "delegation": "Azilal",
        "cs": "Agoudid",
        "commune": "Agoudi N'Lkhair",
        "nombre": 1,
        "Indicateur": "Nombre total",
        "periode": "Sans période",
        "Valeur": 1,
        "value": 1,
        "latitude": "31.9787",
        "longitude": "-6.54533",
        "key": "Agoudid",
        "nom_etab": "8111006 : Agoudid - Azilal",
        "nom_cs": "Agoudid - Azilal",
        "icon": "2"
    },
    {
        "code": "8111007",
        "nom": "Ifrane",
        "abr_categorie": "DR",
        "categorie": "Dispensaire Rural",
        "id_categorie": "7",
        "reseau": "Réseau des Etablissements de Soins de Santé Primaire",
        "abr_reseau": "RESSP",
        "id_reseau": "2",
        "milieu": "Rural",
        "lon": "-6.6464",
        "lat": "31.9841",
        "region": "Béni Mellal-Khénifra",
        "province": "Azilal",
        "delegation": "Azilal",
        "cs": "Agoudid",
        "commune": "Agoudi N'Lkhair",
        "nombre": 1,
        "Indicateur": "Nombre total",
        "periode": "Sans période",
        "Valeur": 1,
        "value": 1,
        "latitude": "31.9841",
        "longitude": "-6.6464",
        "key": "Ifrane",
        "nom_etab": "8111007 : Ifrane - Azilal",
        "nom_cs": "Agoudid - Azilal",
        "icon": "2"
    },
    {
        "code": "8111008",
        "nom": "Inguirt",
        "abr_categorie": "DR",
        "categorie": "Dispensaire Rural",
        "id_categorie": "7",
        "reseau": "Réseau des Etablissements de Soins de Santé Primaire",
        "abr_reseau": "RESSP",
        "id_reseau": "2",
        "milieu": "Rural",
        "lon": "-6.5811",
        "lat": "32.035",
        "region": "Béni Mellal-Khénifra",
        "province": "Azilal",
        "delegation": "Azilal",
        "cs": "Agoudid",
        "commune": "Agoudi N'Lkhair",
        "nombre": 1,
        "Indicateur": "Nombre total",
        "periode": "Sans période",
        "Valeur": 1,
        "value": 1,
        "latitude": "32.035",
        "longitude": "-6.5811",
        "key": "Inguirt",
        "nom_etab": "8111008 : Inguirt - Azilal",
        "nom_cs": "Agoudid - Azilal",
        "icon": "2"
    },
    {
        "code": "8111009",
        "nom": "Tamda",
        "abr_categorie": "CSR-1",
        "categorie": "Centre de Santé Rural niveau1",
        "id_categorie": "2",
        "reseau": "Réseau des Etablissements de Soins de Santé Primaire",
        "abr_reseau": "RESSP",
        "id_reseau": "2",
        "milieu": "Rural",
        "lon": "-6.64301",
        "lat": "31.9222",
        "region": "Béni Mellal-Khénifra",
        "province": "Azilal",
        "delegation": "Azilal",
        "cs": "Agoudid",
        "commune": "Tamda Noumercid",
        "nombre": 1,
        "Indicateur": "Nombre total",
        "periode": "Sans période",
        "Valeur": 1,
        "value": 1,
        "latitude": "31.9222",
        "longitude": "-6.64301",
        "key": "Tamda",
        "nom_etab": "8111009 : Tamda - Azilal",
        "nom_cs": "Agoudid - Azilal",
        "icon": "2"
    },
    {
        "code": "8111010",
        "nom": "Tissa",
        "abr_categorie": "DR",
        "categorie": "Dispensaire Rural",
        "id_categorie": "7",
        "reseau": "Réseau des Etablissements de Soins de Santé Primaire",
        "abr_reseau": "RESSP",
        "id_reseau": "2",
        "milieu": "Rural",
        "lon": "-6.54883",
        "lat": "31.8981",
        "region": "Béni Mellal-Khénifra",
        "province": "Azilal",
        "delegation": "Azilal",
        "cs": "Agoudid",
        "commune": "Tamda Noumercid",
        "nombre": 1,
        "Indicateur": "Nombre total",
        "periode": "Sans période",
        "Valeur": 1,
        "value": 1,
        "latitude": "31.8981",
        "longitude": "-6.54883",
        "key": "Tissa",
        "nom_etab": "8111010 : Tissa - Azilal",
        "nom_cs": "Agoudid - Azilal",
        "icon": "2"
    },
    {
        "code": "8111011",
        "nom": "Sguatt",
        "abr_categorie": "CSR-1",
        "categorie": "Centre de Santé Rural niveau1",
        "id_categorie": "2",
        "reseau": "Réseau des Etablissements de Soins de Santé Primaire",
        "abr_reseau": "RESSP",
        "id_reseau": "2",
        "milieu": "Rural",
        "lon": "-6.6841",
        "lat": "31.8202",
        "region": "Béni Mellal-Khénifra",
        "province": "Azilal",
        "delegation": "Azilal",
        "cs": "Ait M'hamed",
        "commune": "Ait Abbas",
        "nombre": 1,
        "Indicateur": "Nombre total",
        "periode": "Sans période",
        "Valeur": 1,
        "value": 1,
        "latitude": "31.8202",
        "longitude": "-6.6841",
        "key": "Sguatt",
        "nom_etab": "8111011 : Sguatt - Azilal",
        "nom_cs": "Ait M'hamed - Azilal",
        "icon": "2"
    },
    {
        "code": "8111012",
        "nom": "Igmir",
        "abr_categorie": "DR",
        "categorie": "Dispensaire Rural",
        "id_categorie": "7",
        "reseau": "Réseau des Etablissements de Soins de Santé Primaire",
        "abr_reseau": "RESSP",
        "id_reseau": "2",
        "milieu": "Rural",
        "lon": "-6.54652",
        "lat": "31.6985",
        "region": "Béni Mellal-Khénifra",
        "province": "Azilal",
        "delegation": "Azilal",
        "cs": "Ait M'hamed",
        "commune": "Ait Abbas",
        "nombre": 1,
        "Indicateur": "Nombre total",
        "periode": "Sans période",
        "Valeur": 1,
        "value": 1,
        "latitude": "31.6985",
        "longitude": "-6.54652",
        "key": "Igmir",
        "nom_etab": "8111012 : Igmir - Azilal",
        "nom_cs": "Ait M'hamed - Azilal",
        "icon": "2"
    },
    {
        "code": "8111013",
        "nom": "Ait M'hamed",
        "abr_categorie": "CSR-2",
        "categorie": "Centre de Santé Rural niveau2",
        "id_categorie": "3",
        "reseau": "Réseau des Etablissements de Soins de Santé Primaire",
        "abr_reseau": "RESSP",
        "id_reseau": "2",
        "milieu": "Rural",
        "lon": "-6.47233",
        "lat": "31.8777",
        "region": "Béni Mellal-Khénifra",
        "province": "Azilal",
        "delegation": "Azilal",
        "cs": "Ait M'hamed",
        "commune": "Ait M'Hamed",
        "nombre": 1,
        "Indicateur": "Nombre total",
        "periode": "Sans période",
        "Valeur": 1,
        "value": 1,
        "latitude": "31.8777",
        "longitude": "-6.47233",
        "key": "Ait M'hamed",
        "nom_etab": "8111013 : Ait M'hamed - Azilal",
        "nom_cs": "Ait M'hamed - Azilal",
        "icon": "2"
    },
    {
        "code": "8111014",
        "nom": "Abachkou",
        "abr_categorie": "CSR-2",
        "categorie": "Centre de Santé Rural niveau2",
        "id_categorie": "3",
        "reseau": "Réseau des Etablissements de Soins de Santé Primaire",
        "abr_reseau": "RESSP",
        "id_reseau": "2",
        "milieu": "Rural",
        "lon": "-6.64775",
        "lat": "31.6043",
        "region": "Béni Mellal-Khénifra",
        "province": "Azilal",
        "delegation": "Azilal",
        "cs": "Tabant",
        "commune": "Ait Bou Oulli",
        "nombre": 1,
        "Indicateur": "Nombre total",
        "periode": "Sans période",
        "Valeur": 1,
        "value": 1,
        "latitude": "31.6043",
        "longitude": "-6.64775",
        "key": "Abachkou",
        "nom_etab": "8111014 : Abachkou - Azilal",
        "nom_cs": "Tabant - Azilal",
        "icon": "2"
    },
    {
        "code": "8111015",
        "nom": "Bouguemaz",
        "abr_categorie": "CSR-2",
        "categorie": "Centre de Santé Rural niveau2",
        "id_categorie": "3",
        "reseau": "Réseau des Etablissements de Soins de Santé Primaire",
        "abr_reseau": "RESSP",
        "id_reseau": "2",
        "milieu": "Rural",
        "lon": "-6.42072",
        "lat": "31.6584",
        "region": "Béni Mellal-Khénifra",
        "province": "Azilal",
        "delegation": "Azilal",
        "cs": "Tabant",
        "commune": "Tabant",
        "nombre": 1,
        "Indicateur": "Nombre total",
        "periode": "Sans période",
        "Valeur": 1,
        "value": 1,
        "latitude": "31.6584",
        "longitude": "-6.42072",
        "key": "Bouguemaz",
        "nom_etab": "8111015 : Bouguemaz - Azilal",
        "nom_cs": "Tabant - Azilal",
        "icon": "2"
    },
    {
        "code": "8111016",
        "nom": "Sremete  ",
        "abr_categorie": "DR",
        "categorie": "Dispensaire Rural",
        "id_categorie": "7",
        "reseau": "Réseau des Etablissements de Soins de Santé Primaire",
        "abr_reseau": "RESSP",
        "id_reseau": "2",
        "milieu": "Rural",
        "lon": "-6.47803",
        "lat": "31.74",
        "region": "Béni Mellal-Khénifra",
        "province": "Azilal",
        "delegation": "Azilal",
        "cs": "Tabant",
        "commune": "Tabant",
        "nombre": 1,
        "Indicateur": "Nombre total",
        "periode": "Sans période",
        "Valeur": 1,
        "value": 1,
        "latitude": "31.74",
        "longitude": "-6.47803",
        "key": "Sremete  ",
        "nom_etab": "8111016 : Sremete   - Azilal",
        "nom_cs": "Tabant - Azilal",
        "icon": "2"
    },
    {
        "code": "8111017",
        "nom": "Z.Ahansal",
        "abr_categorie": "CSR-2",
        "categorie": "Centre de Santé Rural niveau2",
        "id_categorie": "3",
        "reseau": "Réseau des Etablissements de Soins de Santé Primaire",
        "abr_reseau": "RESSP",
        "id_reseau": "2",
        "milieu": "Rural",
        "lon": "-6.10633",
        "lat": "31.8339",
        "region": "Béni Mellal-Khénifra",
        "province": "Azilal",
        "delegation": "Azilal",
        "cs": "Zaouiat Ahansal",
        "commune": "Zaouiat Ahansal",
        "nombre": 1,
        "Indicateur": "Nombre total",
        "periode": "Sans période",
        "Valeur": 1,
        "value": 1,
        "latitude": "31.8339",
        "longitude": "-6.10633",
        "key": "Z.Ahansal",
        "nom_etab": "8111017 : Z.Ahansal - Azilal",
        "nom_cs": "Zaouiat Ahansal - Azilal",
        "icon": "2"
    },
    {
        "code": "8111018",
        "nom": "Zerken",
        "abr_categorie": "DR",
        "categorie": "Dispensaire Rural",
        "id_categorie": "7",
        "reseau": "Réseau des Etablissements de Soins de Santé Primaire",
        "abr_reseau": "RESSP",
        "id_reseau": "2",
        "milieu": "Rural",
        "lon": "-6.10633",
        "lat": "31.9595",
        "region": "Béni Mellal-Khénifra",
        "province": "Azilal",
        "delegation": "Azilal",
        "cs": "Zaouiat Ahansal",
        "commune": "Zaouiat Ahansal",
        "nombre": 1,
        "Indicateur": "Nombre total",
        "periode": "Sans période",
        "Valeur": 1,
        "value": 1,
        "latitude": "31.9595",
        "longitude": "-6.10633",
        "key": "Zerken",
        "nom_etab": "8111018 : Zerken - Azilal",
        "nom_cs": "Zaouiat Ahansal - Azilal",
        "icon": "2"
    },
    {
        "code": "8111019",
        "nom": "Ait Attab",
        "abr_categorie": "CSR-2",
        "categorie": "Centre de Santé Rural niveau2",
        "id_categorie": "3",
        "reseau": "Réseau des Etablissements de Soins de Santé Primaire",
        "abr_reseau": "RESSP",
        "id_reseau": "2",
        "milieu": "Rural",
        "lon": "-6.67695",
        "lat": "32.1072",
        "region": "Béni Mellal-Khénifra",
        "province": "Azilal",
        "delegation": "Azilal",
        "cs": "Ait Aatab",
        "commune": "Moulay Aissa Ben Driss",
        "nombre": 1,
        "Indicateur": "Nombre total",
        "periode": "Sans période",
        "Valeur": 1,
        "value": 1,
        "latitude": "32.1072",
        "longitude": "-6.67695",
        "key": "Ait Attab",
        "nom_etab": "8111019 : Ait Attab - Azilal",
        "nom_cs": "Ait Aatab - Azilal",
        "icon": "2"
    },
    {
        "code": "8111020",
        "nom": "Taounza",
        "abr_categorie": "CSR-1",
        "categorie": "Centre de Santé Rural niveau1",
        "id_categorie": "2",
        "reseau": "Réseau des Etablissements de Soins de Santé Primaire",
        "abr_reseau": "RESSP",
        "id_reseau": "2",
        "milieu": "Rural",
        "lon": "-6.60007",
        "lat": "32.096",
        "region": "Béni Mellal-Khénifra",
        "province": "Azilal",
        "delegation": "Azilal",
        "cs": "Ait Aatab",
        "commune": "Taounza",
        "nombre": 1,
        "Indicateur": "Nombre total",
        "periode": "Sans période",
        "Valeur": 1,
        "value": 1,
        "latitude": "32.096",
        "longitude": "-6.60007",
        "key": "Taounza",
        "nom_etab": "8111020 : Taounza - Azilal",
        "nom_cs": "Ait Aatab - Azilal",
        "icon": "2"
    },
    {
        "code": "8111021",
        "nom": "Indjaren  ",
        "abr_categorie": "DR",
        "categorie": "Dispensaire Rural",
        "id_categorie": "7",
        "reseau": "Réseau des Etablissements de Soins de Santé Primaire",
        "abr_reseau": "RESSP",
        "id_reseau": "2",
        "milieu": "Rural",
        "lon": "-6.60294",
        "lat": "32.0989",
        "region": "Béni Mellal-Khénifra",
        "province": "Azilal",
        "delegation": "Azilal",
        "cs": "Ait Aatab",
        "commune": "Taounza",
        "nombre": 1,
        "Indicateur": "Nombre total",
        "periode": "Sans période",
        "Valeur": 1,
        "value": 1,
        "latitude": "32.0989",
        "longitude": "-6.60294",
        "key": "Indjaren  ",
        "nom_etab": "8111021 : Indjaren   - Azilal",
        "nom_cs": "Ait Aatab - Azilal",
        "icon": "2"
    },
    {
        "code": "8111022",
        "nom": "Tisqi",
        "abr_categorie": "CSR-1",
        "categorie": "Centre de Santé Rural niveau1",
        "id_categorie": "2",
        "reseau": "Réseau des Etablissements de Soins de Santé Primaire",
        "abr_reseau": "RESSP",
        "id_reseau": "2",
        "milieu": "Rural",
        "lon": "-6.77081",
        "lat": "32.1132",
        "region": "Béni Mellal-Khénifra",
        "province": "Azilal",
        "delegation": "Azilal",
        "cs": "Ait Aatab",
        "commune": "Tisqi",
        "nombre": 1,
        "Indicateur": "Nombre total",
        "periode": "Sans période",
        "Valeur": 1,
        "value": 1,
        "latitude": "32.1132",
        "longitude": "-6.77081",
        "key": "Tisqi",
        "nom_etab": "8111022 : Tisqi - Azilal",
        "nom_cs": "Ait Aatab - Azilal",
        "icon": "2"
    },
    {
        "code": "8111023",
        "nom": "Tizgui-N'bni Ayat",
        "abr_categorie": "CSR-1",
        "categorie": "Centre de Santé Rural niveau1",
        "id_categorie": "2",
        "reseau": "Réseau des Etablissements de Soins de Santé Primaire",
        "abr_reseau": "RESSP",
        "id_reseau": "2",
        "milieu": "Rural",
        "lon": "-6.58405",
        "lat": "32.2173",
        "region": "Béni Mellal-Khénifra",
        "province": "Azilal",
        "delegation": "Azilal",
        "cs": "Bni Ayat",
        "commune": "Bni Ayat",
        "nombre": 1,
        "Indicateur": "Nombre total",
        "periode": "Sans période",
        "Valeur": 1,
        "value": 1,
        "latitude": "32.2173",
        "longitude": "-6.58405",
        "key": "Tizgui-N'bni Ayat",
        "nom_etab": "8111023 : Tizgui-N'bni Ayat - Azilal",
        "nom_cs": "Bni Ayat - Azilal",
        "icon": "2"
    },
    {
        "code": "8111024",
        "nom": "Tanfarda",
        "abr_categorie": "CSR-1",
        "categorie": "Centre de Santé Rural niveau1",
        "id_categorie": "2",
        "reseau": "Réseau des Etablissements de Soins de Santé Primaire",
        "abr_reseau": "RESSP",
        "id_reseau": "2",
        "milieu": "Rural",
        "lon": "-6.64323",
        "lat": "32.2043",
        "region": "Béni Mellal-Khénifra",
        "province": "Azilal",
        "delegation": "Azilal",
        "cs": "Bni Ayat",
        "commune": "Bni Ayat",
        "nombre": 1,
        "Indicateur": "Nombre total",
        "periode": "Sans période",
        "Valeur": 1,
        "value": 1,
        "latitude": "32.2043",
        "longitude": "-6.64323",
        "key": "Tanfarda",
        "nom_etab": "8111024 : Tanfarda - Azilal",
        "nom_cs": "Bni Ayat - Azilal",
        "icon": "2"
    },